Time from start of file(), Time from initialisation(), Time from start of region(), Time(hh:mm:ss), Time(s), Seconds from midnight Sunday(), Latitude(deg), Longitude(deg), Altitude(m), Distance horizontal(m), Velocity forward(m/s), Velocity lateral(m/s), Velocity down(m/s), Speed horizontal(m/s), Number of GPS satellites used(), GPS position mode(), GPS velocity mode(), GPS dual antenna attitude mode(), Heading(deg), Pitch(deg), Roll(deg), Slip angle(deg), Angular rate forward(deg/s), Angular rate lateral(), Angular rate down(deg/s), Angular rate Xv(deg/s), Angular rate Yv(deg/s), Angular rate Zv(deg/s), Acceleration forward(m/s²), Acceleration lateral(m/s²), Acceleration down(m/s²), Acceleration Xv(m/s²), Acceleration Yv(m/s²), Acceleration Zv(m/s²)
0.008,0,0, 2021/07/20 18:25:36.008 PM,1310840736,239136.008,37.42900374,-122.1843971,40.811,0,0,0,0.22,0,7, SPS (3), Doppler (2), None (),0,0,0,0,0,0,0,-1.06,-1.67,-0.4,0,0,0,-10.103,-0.194,0.28
0.02,0,0.012, 2021/07/20 18:25:36.020 PM,1310840736,239136.02,37.42898493,-122.1843995,40.848,0,0,0,-0.51,0,7, SPS (3), Doppler (2), None (),0,0,0,0,0,0,0,-1.8,-1.32,-0.17,0,0,0,-9.779,-0.305,0.352
0.028,0,0.02, 2021/07/20 18:25:36.028 PM,1310840736,239136.028,37.42898493,-122.1843995,40.848,0,0,0,-0.51,0,7, SPS (3), Doppler (2), None (),0,0,0,0,0,0,0,-1.74,-1.25,0.2,0,0,0,-9.846,-0.135,0.249
0.04,0,0.032, 2021/07/20 18:25:36.040 PM,1310840736,239136.04,37.42898493,-122.1843995,40.848,0,0,0,-0.51,0,7, SPS (3), Doppler (2), None (),0,0,0,0,0,0,0,-1.71,-1.55,0.43,0,0,0,-9.538,-0.308,0.481
0.048,0,0.04, 2021/07/20 18:25:36.048 PM,1310840736,239136.048,37.42898493,-122.1843995,40.848,0,0,0,-0.51,0,7, SPS (3), Doppler (2), None (),0,0,0,0,0,0,0,-0.78,-1.02,0.67,0,0,0,-9.603,-0.171,0.279
0.06,0,0.052, 2021/07/20 18:25:36.060 PM,1310840736,239136.06,37.42898493,-122.1843995,40.848,0,0,0,-0.51,0,7, SPS (3), Doppler (2), None (),0,0,0,0,0,0,0,-1.17,-0.57,0.45,0,0,0,-9.419,-0.253,0.427
0.068,0,0.06, 2021/07/20 18:25:36.068 PM,1310840736,239136.068,37.42898493,-122.1843995,40.848,0,0,0,-0.51,0,7, SPS (3), Doppler (2), None (),0,0,0,0,0,0,0,-1.67,-0.33,0.21,0,0,0,-9.495,-0.13,0.532
0.08,0,0.072, 2021/07/20 18:25:36.080 PM,1310840736,239136.08,37.42897738,-122.1844003,40.938,0,0,0,-0.15,0,7, SPS (3), Doppler (2), None (),0,0,0,0,0,0,0,-1.75,-0.62,-0.42,0,0,0,-9.404,-0.326,0.445
0.088,0,0.08, 2021/07/20 18:25:36.088 PM,1310840736,239136.088,37.42897738,-122.1844003,40.938,0,0,0,-0.15,0,7, SPS (3), Doppler (2), None (),0,0,0,0,0,0,0,-1.32,-0.61,-0.13,0,0,0,-9.379,-0.134,0.427
0.1,0,0.092, 2021/07/20 18:25:36.100 PM,1310840736,239136.1,37.42897738,-122.1844003,40.938,0,0,0,-0.15,0,7, SPS (3), Doppler (2), None (),0,0,0,0,0,0,0,-0.77,-0.09,-0.84,0,0,0,-9.508,-0.067,0.223
0.108,0,0.1, 2021/07/20 18:25:36.108 PM,1310840736,239136.108,37.42897738,-122.1844003,40.938,0,0,0,0.02,0,7, SPS (3), Doppler (2), None (),0,0,0,0,0,0,0,-1.53,-0.08,0.16,0,0,0,-9.556,-0.321,0.337
0.12,0,0.112, 2021/07/20 18:25:36.120 PM,1310840736,239136.12,37.42897738,-122.1844003,40.938,0,0,0,0.02,0,7, SPS (3), Doppler (2), None (),0,0,0,0,0,0,0,-0.46,-0.06,-0.68,0,0,0,-9.785,-0.271,0.303
0.128,0,0.12, 2021/07/20 18:25:36.128 PM,1310840736,239136.128,37.42897738,-122.1844003,40.938,0,0,0,0.02,0,7, SPS (3), Doppler (2), None (),0,0,0,0,0,0,0,-1.46,0.24,-1.08,0,0,0,-9.804,-0.126,0.284
0.14,0,0.132, 2021/07/20 18:25:36.140 PM,1310840736,239136.14,37.42897738,-122.1844003,40.938,0,0,0,0.02,0,7, SPS (3), Doppler (2), None (),0,0,0,0,0,0,0,-1.04,-0.46,0.51,0,0,0,-9.881,-0.218,0.206
0.148,0,0.14, 2021/07/20 18:25:36.148 PM,1310840736,239136.148,37.42897738,-122.1844003,40.938,0,0,0,0.02,0,7, SPS (3), Doppler (2), None (),0,0,0,0,0,0,0,-1.67,0.17,0.14,0,0,0,-9.892,-0.223,0.082
0.16,0,0.152, 2021/07/20 18:25:36.160 PM,1310840736,239136.16,37.42897738,-122.1844003,40.938,0,0,0,0.02,0,7, SPS (3), Doppler (2), None (),0,0,0,0,0,0,0,-1.52,-0.07,0.54,0,0,0,-9.961,-0.148,0.05
0.168,0,0.16, 2021/07/20 18:25:36.168 PM,1310840736,239136.168,37.42897738,-122.1844003,40.938,0,0,0,0.02,0,7, SPS (3), Doppler (2), None (),0,0,0,0,0,0,0,-1.75,-0.74,0.34,0,0,0,-9.957,-0.134,0.224
0.18,0,0.172, 2021/07/20 18:25:36.180 PM,1310840736,239136.18,37.42897738,-122.1844003,40.938,0,0,0,0.02,0,7, SPS (3), Doppler (2), None (),0,0,0,0,0,0,0,-1.27,-0.68,-0.25,0,0,0,-9.942,-0.135,0.122
0.188,0,0.18, 2021/07/20 18:25:36.188 PM,1310840736,239136.188,37.42897738,-122.1844003,40.938,0,0,0,0.02,0,7, SPS (3), Doppler (2), None (),0,0,0,0,0,0,0,-1.44,-0.44,0.19,0,0,0,-9.955,-0.245,0.121
0.2,0,0.192, 2021/07/20 18:25:36.200 PM,1310840736,239136.2,37.42897738,-122.1844003,40.938,0,0,0,0.02,0,7, SPS (3), Doppler (2), None (),0,0,0,0,0,0,0,0.39,-0.54,0.34,0,0,0,-9.868,-0.178,0.07
0.208,0,0.2, 2021/07/20 18:25:36.208 PM,1310840736,239136.208,37.42897738,-122.1844003,40.938,0,0,0,0.1,0,7, SPS (3), Doppler (2), None (),0,0,0,0,0,0,0,-1.4,-0.51,-0.1,0,0,0,-9.913,-0.275,0.242
0.22,0,0.212, 2021/07/20 18:25:36.220 PM,1310840736,239136.22,37.42897738,-122.1844003,40.938,0,0,0,0.1,0,7, SPS (3), Doppler (2), None (),0,0,0,0,0,0,0,-0.85,-0.34,0.89,0,0,0,-9.748,-0.292,0.263
0.228,0,0.22, 2021/07/20 18:25:36.228 PM,1310840736,239136.228,37.42897738,-122.1844003,40.938,0,0,0,0.1,0,7, SPS (3), Doppler (2), None (),0,0,0,0,0,0,0,-1.17,-0.84,-0.28,0,0,0,-9.777,-0.276,0.156
0.24,0,0.232, 2021/07/20 18:25:36.240 PM,1310840736,239136.24,37.42897738,-122.1844003,40.938,0,0,0,0.1,0,7, SPS (3), Doppler (2), None (),0,0,0,0,0,0,0,-1.59,-0.88,0.31,0,0,0,-9.777,-0.123,0.223
0.248,0,0.24, 2021/07/20 18:25:36.248 PM,1310840736,239136.248,37.42897738,-122.1844003,40.938,0,0,0,0.1,0,7, SPS (3), Doppler (2), None (),0,0,0,0,0,0,0,-1.59,-0.17,0.29,0,0,0,-9.797,-0.265,0.346
0.26,0,0.252, 2021/07/20 18:25:36.260 PM,1310840736,239136.26,37.42897738,-122.1844003,40.938,0,0,0,0.1,0,7, SPS (3), Doppler (2), None (),0,0,0,0,0,0,0,-2.02,0.19,0.01,0,0,0,-9.906,-0.16,0.092
0.268,0,0.26, 2021/07/20 18:25:36.268 PM,1310840736,239136.268,37.42897738,-122.1844003,40.938,0,0,0,0.1,0,7, SPS (3), Doppler (2), None (),0,0,0,0,0,0,0,-1.3,0.09,-0.2,0,0,0,-9.881,-0.119,0.135
0.28,0,0.272, 2021/07/20 18:25:36.280 PM,1310840736,239136.28,37.42897738,-122.1844003,40.938,0,0,0,0.1,0,7, SPS (3), Doppler (2), None (),0,0,0,0,0,0,0,-0.64,0.14,0.32,0,0,0,-9.921,-0.016,0.003
0.288,0,0.28, 2021/07/20 18:25:36.288 PM,1310840736,239136.288,37.42897738,-122.1844003,40.938,0,0,0,0.1,0,7, SPS (3), Doppler (2), None (),0,0,0,0,0,0,0,-1.27,0.26,-0.48,0,0,0,-9.802,-0.117,0.102
0.3,0,0.292, 2021/07/20 18:25:36.300 PM,1310840736,239136.3,37.42897738,-122.1844003,40.938,0,0,0,0.1,0,7, SPS (3), Doppler (2), None (),0,0,0,0,0,0,0,-1.45,0.3,-0.75,0,0,0,-9.98,-0.092,0.05
0.308,0,0.3, 2021/07/20 18:25:36.308 PM,1310840736,239136.308,37.42897738,-122.1844003,40.938,0,0,0,-0.02,0,7, SPS (3), Doppler (2), None (),0,0,0,0,0,0,0,-1.9,-0.22,-1.19,0,0,0,-9.836,-0.089,0.199
0.32,0,0.312, 2021/07/20 18:25:36.320 PM,1310840736,239136.32,37.42897738,-122.1844003,40.938,0,0,0,-0.02,0,7, SPS (3), Doppler (2), None (),0,0,0,0,0,0,0,-1.33,0.14,-0.13,0,0,0,-9.834,-0.022,0.099
0.328,0,0.32, 2021/07/20 18:25:36.328 PM,1310840736,239136.328,37.42897738,-122.1844003,40.938,0,0,0,-0.02,0,7, SPS (3), Doppler (2), None (),0,0,0,0,0,0,0,-1.2,-0.02,-1.43,0,0,0,-9.707,-0.014,0.072
0.34,0,0.332, 2021/07/20 18:25:36.340 PM,1310840736,239136.34,37.42897738,-122.1844003,40.938,0,0,0,-0.02,0,7, SPS (3), Doppler (2), None (),0,0,0,0,0,0,0,-1.49,-0.49,-0.46,0,0,0,-9.754,-0.138,0.151
0.348,0,0.34, 2021/07/20 18:25:36.348 PM,1310840736,239136.348,37.42897738,-122.1844003,40.938,0,0,0,-0.02,0,7, SPS (3), Doppler (2), None (),0,0,0,0,0,0,0,-1.46,-0.51,-0.2,0,0,0,-9.576,-0.031,0.242
0.36,0,0.352, 2021/07/20 18:25:36.360 PM,1310840736,239136.36,37.42897738,-122.1844003,40.938,0,0,0,-0.02,0,7, SPS (3), Doppler (2), None (),0,0,0,0,0,0,0,-1.22,-0.03,-1.05,0,0,0,-9.694,0.019,0.08
0.368,0,0.36, 2021/07/20 18:25:36.368 PM,1310840736,239136.368,37.42897738,-122.1844003,40.938,0,0,0,-0.02,0,7, SPS (3), Doppler (2), None (),0,0,0,0,0,0,0,-1.68,-0.07,-0.16,0,0,0,-9.556,-0.064,0.323
0.38,0,0.372, 2021/07/20 18:25:36.380 PM,1310840736,239136.38,37.42897738,-122.1844003,40.938,0,0,0,-0.02,0,7, SPS (3), Doppler (2), None (),0,0,0,0,0,0,0,-1.45,-0.58,-0.8,0,0,0,-9.674,-0.115,0.24
0.388,0,0.38, 2021/07/20 18:25:36.388 PM,1310840736,239136.388,37.42897738,-122.1844003,40.938,0,0,0,-0.02,0,7, SPS (3), Doppler (2), None (),0,0,0,0,0,0,0,-1.58,0.06,-0.43,0,0,0,-9.592,-0.199,0.304
0.4,0,0.392, 2021/07/20 18:25:36.400 PM,1310840736,239136.4,37.42897738,-122.1844003,40.938,0,0,0,-0.02,0,7, SPS (3), Doppler (2), None (),0,0,0,0,0,0,0,-0.78,-0.34,0.15,0,0,0,-9.725,-0.254,0.284
0.408,0,0.4, 2021/07/20 18:25:36.408 PM,1310840736,239136.408,37.42897738,-122.1844003,40.938,0,0,0,-0.02,0,7, SPS (3), Doppler (2), None (),0,0,0,0,0,0,0,-2.02,0.36,-0.7,0,0,0,-9.667,-0.197,0.197
0.42,0,0.412, 2021/07/20 18:25:36.420 PM,1310840736,239136.42,37.42897738,-122.1844003,40.938,0,0,0,-0.2,0,7, SPS (3), Doppler (2), None (),0,0,0,0,0,0,0,-0.62,0.48,-0.23,0,0,0,-9.755,-0.149,0.031
0.428,0,0.42, 2021/07/20 18:25:36.428 PM,1310840736,239136.428,37.42897738,-122.1844003,40.938,0,0,0,-0.2,0,7, SPS (3), Doppler (2), None (),0,0,0,0,0,0,0,-0.92,0.09,-0.2,0,0,0,-9.8,-0.231,0.176
0.44,0,0.432, 2021/07/20 18:25:36.440 PM,1310840736,239136.44,37.42897738,-122.1844003,40.938,0,0,0,-0.2,0,7, SPS (3), Doppler (2), None (),0,0,0,0,0,0,0,-1.41,-0.33,-0.58,0,0,0,-9.911,-0.182,0.333
0.448,0,0.44, 2021/07/20 18:25:36.448 PM,1310840736,239136.448,37.42897738,-122.1844003,40.938,0,0,0,-0.2,0,7, SPS (3), Doppler (2), None (),0,0,0,0,0,0,0,-0.92,0.56,-0.18,0,0,0,-9.948,-0.249,0.043
0.46,0,0.452, 2021/07/20 18:25:36.460 PM,1310840736,239136.46,37.42897738,-122.1844003,40.938,0,0,0,-0.2,0,7, SPS (3), Doppler (2), None (),0,0,0,0,0,0,0,-1.16,-0.44,0.03,0,0,0,-10.063,-0.337,0.273
0.468,0,0.46, 2021/07/20 18:25:36.468 PM,1310840736,239136.468,37.42897738,-122.1844003,40.938,0,0,0,-0.2,0,7, SPS (3), Doppler (2), None (),0,0,0,0,0,0,0,-0.55,0.14,-0.56,0,0,0,-10.127,0.021,-0.019
0.48,0,0.472, 2021/07/20 18:25:36.480 PM,1310840736,239136.48,37.42897738,-122.1844003,40.938,0,0,0,-0.2,0,7, SPS (3), Doppler (2), None (),0,0,0,0,0,0,0,-1.15,-0.24,-0.9,0,0,0,-10.134,-0.082,0.14
0.488,0,0.48, 2021/07/20 18:25:36.488 PM,1310840736,239136.488,37.42897738,-122.1844003,40.938,0,0,0,-0.2,0,7, SPS (3), Doppler (2), None (),0,0,0,0,0,0,0,-1.94,-1.27,-0.9,0,0,0,-10.124,-0.164,0.039
0.5,0,0.492, 2021/07/20 18:25:36.500 PM,1310840737,239136.5,37.42897738,-122.1844003,40.938,0,0,0,-0.2,0,7, SPS (3), Doppler (2), None (),0,0,0,0,0,0,0,-1.04,-0.99,-0.26,0,0,0,-9.94,-0.165,0.112
0.508,0,0.5, 2021/07/20 18:25:36.508 PM,1310840737,239136.508,37.42897738,-122.1844003,40.938,0,0,0,-0.2,0,7, SPS (3), Doppler (2), None (),0,0,0,0,0,0,0,-1.58,-0.79,-1.09,0,0,0,-9.99,-0.132,0.12
0.52,0,0.512, 2021/07/20 18:25:36.520 PM,1310840737,239136.52,37.42897738,-122.1844003,40.938,0,0,0,-0.2,0,7, SPS (3), Doppler (2), None (),0,0,0,0,0,0,0,-1.36,-0.57,-0.76,0,0,0,-9.827,-0.293,0.214
0.528,0,0.52, 2021/07/20 18:25:36.528 PM,1310840737,239136.528,37.42897738,-122.1844003,40.938,0,0,0,-0.2,0,7, SPS (3), Doppler (2), None (),0,0,0,0,0,0,0,-1.73,-1.46,-0.32,0,0,0,-9.656,-0.191,0.083
0.54,0,0.532, 2021/07/20 18:25:36.540 PM,1310840737,239136.54,37.42897738,-122.1844003,40.938,0,0,0,-0.2,0,7, SPS (3), Doppler (2), None (),0,0,0,0,0,0,0,-0.51,-1.21,0.11,0,0,0,-9.553,-0.178,0.226
0.548,0,0.54, 2021/07/20 18:25:36.548 PM,1310840737,239136.548,37.42897738,-122.1844003,40.938,0,0,0,-0.2,0,7, SPS (3), Doppler (2), None (),0,0,0,0,0,0,0,-0.95,-1.73,-0.94,0,0,0,-9.387,-0.057,0.375
0.56,0,0.552, 2021/07/20 18:25:36.560 PM,1310840737,239136.56,37.42897738,-122.1844003,40.938,0,0,0,-0.2,0,7, SPS (3), Doppler (2), None (),0,0,0,0,0,0,0,-0.86,-0.76,0.06,0,0,0,-9.333,-0.096,0.259
0.568,0,0.56, 2021/07/20 18:25:36.568 PM,1310840737,239136.568,37.42896972,-122.1844044,39.164,0,0,0,-0.11,0,8, SPS (3), Doppler (2), None (),0,0,0,0,0,0,0,-1.16,-0.3,-0.24,0,0,0,-9.417,-0.035,0.304
0.58,0,0.572, 2021/07/20 18:25:36.580 PM,1310840737,239136.58,37.42896972,-122.1844044,39.164,0,0,0,-0.11,0,8, SPS (3), Doppler (2), None (),0,0,0,0,0,0,0,-0.66,-0.09,-0.37,0,0,0,-9.396,0.085,0.3
0.588,0,0.58, 2021/07/20 18:25:36.588 PM,1310840737,239136.588,37.42896972,-122.1844044,39.164,0,0,0,-0.11,0,8, SPS (3), Doppler (2), None (),0,0,0,0,0,0,0,-0.92,0.3,-0.73,0,0,0,-9.398,0.121,0.019
0.6,0,0.592, 2021/07/20 18:25:36.600 PM,1310840737,239136.6,37.42896972,-122.1844044,39.164,0,0,0,-0.11,0,8, SPS (3), Doppler (2), None (),0,0,0,0,0,0,0,-1.87,0.61,-0.66,0,0,0,-9.426,-0.078,0.154
0.608,0,0.6, 2021/07/20 18:25:36.608 PM,1310840737,239136.608,37.42896972,-122.1844044,39.164,0,0,0,0.19,0,8, SPS (3), Doppler (2), None (),0,0,0,0,0,0,0,-0.92,0.27,-0.57,0,0,0,-9.503,-0.165,-0.057
0.62,0,0.612, 2021/07/20 18:25:36.620 PM,1310840737,239136.62,37.42896972,-122.1844044,39.164,0,0,0,0.19,0,8, SPS (3), Doppler (2), None (),0,0,0,0,0,0,0,-1.88,0.06,-1.27,0,0,0,-9.607,-0.111,0.091
0.628,0,0.62, 2021/07/20 18:25:36.628 PM,1310840737,239136.628,37.42896972,-122.1844044,39.164,0,0,0,0.19,0,8, SPS (3), Doppler (2), None (),0,0,0,0,0,0,0,-0.81,-0.36,-0.44,0,0,0,-9.649,-0.109,0.049
0.64,0,0.632, 2021/07/20 18:25:36.640 PM,1310840737,239136.64,37.42896972,-122.1844044,39.164,0,0,0,0.19,0,8, SPS (3), Doppler (2), None (),0,0,0,0,0,0,0,-0.9,-0.29,-0.25,0,0,0,-9.685,-0.209,0.027
0.648,0,0.64, 2021/07/20 18:25:36.648 PM,1310840737,239136.648,37.42896972,-122.1844044,39.164,0,0,0,0.19,0,8, SPS (3), Doppler (2), None (),0,0,0,0,0,0,0,-0.9,-0.24,-1.18,0,0,0,-9.914,-0.222,0.013
0.66,0,0.652, 2021/07/20 18:25:36.660 PM,1310840737,239136.66,37.42896972,-122.1844044,39.164,0,0,0,0.19,0,8, SPS (3), Doppler (2), None (),0,0,0,0,0,0,0,-0.94,-0.46,-1.26,0,0,0,-9.91,-0.122,0.123
0.668,0,0.66, 2021/07/20 18:25:36.668 PM,1310840737,239136.668,37.42896972,-122.1844044,39.164,0,0,0,0.19,0,8, SPS (3), Doppler (2), None (),0,0,0,0,0,0,0,-1.26,0.38,0.61,0,0,0,-9.997,-0.17,-0.051
0.68,0,0.672, 2021/07/20 18:25:36.680 PM,1310840737,239136.68,37.42896972,-122.1844044,39.164,0,0,0,0.19,0,8, SPS (3), Doppler (2), None (),0,0,0,0,0,0,0,-1.15,-1.04,-0.98,0,0,0,-10.092,-0.132,0.156
0.688,0,0.68, 2021/07/20 18:25:36.688 PM,1310840737,239136.688,37.42896972,-122.1844044,39.164,0,0,0,0.19,0,8, SPS (3), Doppler (2), None (),0,0,0,0,0,0,0,-1.44,-0.58,-0.25,0,0,0,-10.123,-0.148,0.198
0.7,0,0.692, 2021/07/20 18:25:36.700 PM,1310840737,239136.7,37.42896972,-122.1844044,39.164,0,0,0,0.19,0,8, SPS (3), Doppler (2), None (),0,0,0,0,0,0,0,-2.06,-0.46,-0.87,0,0,0,-10.08,-0.181,0.117
0.708,0,0.7, 2021/07/20 18:25:36.708 PM,1310840737,239136.708,37.42896972,-122.1844044,39.164,0,0,0,-0.12,0,8, SPS (3), Doppler (2), None (),0,0,0,0,0,0,0,-0.76,-0.6,-1.37,0,0,0,-10.044,-0.188,0.135
0.72,0,0.712, 2021/07/20 18:25:36.720 PM,1310840737,239136.72,37.42896972,-122.1844044,39.164,0,0,0,-0.12,0,8, SPS (3), Doppler (2), None (),0,0,0,0,0,0,0,-0.54,-0.79,-1.11,0,0,0,-10.05,-0.121,0.079
0.728,0,0.72, 2021/07/20 18:25:36.728 PM,1310840737,239136.728,37.42896972,-122.1844044,39.164,0,0,0,-0.12,0,8, SPS (3), Doppler (2), None (),0,0,0,0,0,0,0,-1.41,-0.7,-1.31,0,0,0,-9.899,-0.265,0.146
0.74,0,0.732, 2021/07/20 18:25:36.740 PM,1310840737,239136.74,37.42896972,-122.1844044,39.164,0,0,0,-0.12,0,8, SPS (3), Doppler (2), None (),0,0,0,0,0,0,0,-0.71,-0.65,-1.17,0,0,0,-9.842,-0.242,0.027
0.748,0,0.74, 2021/07/20 18:25:36.748 PM,1310840737,239136.748,37.42896972,-122.1844044,39.164,0,0,0,-0.12,0,8, SPS (3), Doppler (2), None (),0,0,0,0,0,0,0,-0.93,-0.54,-1.73,0,0,0,-9.758,-0.163,0.135
0.76,0,0.752, 2021/07/20 18:25:36.760 PM,1310840737,239136.76,37.42896972,-122.1844044,39.164,0,0,0,-0.12,0,8, SPS (3), Doppler (2), None (),0,0,0,0,0,0,0,-1.06,-0.06,-1.1,0,0,0,-9.838,-0.14,0.129
0.768,0,0.76, 2021/07/20 18:25:36.768 PM,1310840737,239136.768,37.42896972,-122.1844044,39.164,0,0,0,-0.12,0,8, SPS (3), Doppler (2), None (),0,0,0,0,0,0,0,-1.03,-0.69,-1.78,0,0,0,-9.686,-0.116,0.129
0.78,0,0.772, 2021/07/20 18:25:36.780 PM,1310840737,239136.78,37.42896972,-122.1844044,39.164,0,0,0,-0.12,0,8, SPS (3), Doppler (2), None (),0,0,0,0,0,0,0,-0.93,-0.04,-0.72,0,0,0,-9.725,0.02,0.131
0.788,0,0.78, 2021/07/20 18:25:36.788 PM,1310840737,239136.788,37.42896972,-122.1844044,39.164,0,0,0,-0.12,0,8, SPS (3), Doppler (2), None (),0,0,0,0,0,0,0,-0.74,0.38,-1.03,0,0,0,-9.776,-0.034,0.084
0.8,0,0.792, 2021/07/20 18:25:36.800 PM,1310840737,239136.8,37.42896972,-122.1844044,39.164,0,0,0,-0.12,0,8, SPS (3), Doppler (2), None (),0,0,0,0,0,0,0,-1.23,-0.13,-1.43,0,0,0,-9.72,-0.108,0.17
0.808,0,0.8, 2021/07/20 18:25:36.808 PM,1310840737,239136.808,37.42896972,-122.1844044,39.164,0,0,0,-0.12,0,8, SPS (3), Doppler (2), None (),0,0,0,0,0,0,0,-0.6,-0.87,-1.64,0,0,0,-9.789,-0.015,0.123
0.82,0,0.812, 2021/07/20 18:25:36.820 PM,1310840737,239136.82,37.42896972,-122.1844044,39.164,0,0,0,-0.19,0,8, SPS (3), Doppler (2), None (),0,0,0,0,0,0,0,-1.3,-0.78,-1.46,0,0,0,-9.774,-0.131,0.207
0.828,0,0.82, 2021/07/20 18:25:36.828 PM,1310840737,239136.828,37.42896972,-122.1844044,39.164,0,0,0,-0.19,0,8, SPS (3), Doppler (2), None (),0,0,0,0,0,0,0,-1.79,-0.61,-2.08,0,0,0,-9.76,-0.208,0.192
0.84,0,0.832, 2021/07/20 18:25:36.840 PM,1310840737,239136.84,37.42896972,-122.1844044,39.164,0,0,0,-0.19,0,8, SPS (3), Doppler (2), None (),0,0,0,0,0,0,0,-1.05,0.07,-1.98,0,0,0,-9.736,-0.135,0
0.848,0,0.84, 2021/07/20 18:25:36.848 PM,1310840737,239136.848,37.42896972,-122.1844044,39.164,0,0,0,-0.19,0,8, SPS (3), Doppler (2), None (),0,0,0,0,0,0,0,-1.21,-0.3,-1.27,0,0,0,-9.783,-0.243,0.091
0.86,0,0.852, 2021/07/20 18:25:36.860 PM,1310840737,239136.86,37.42896972,-122.1844044,39.164,0,0,0,-0.19,0,8, SPS (3), Doppler (2), None (),0,0,0,0,0,0,0,-0.84,0.55,-1.01,0,0,0,-9.733,-0.212,0.061
0.868,0,0.86, 2021/07/20 18:25:36.868 PM,1310840737,239136.868,37.42896972,-122.1844044,39.164,0,0,0,-0.19,0,8, SPS (3), Doppler (2), None (),0,0,0,0,0,0,0,-1.42,-0.52,-1.44,0,0,0,-9.647,-0.241,0.195
0.88,0,0.872, 2021/07/20 18:25:36.880 PM,1310840737,239136.88,37.42896972,-122.1844044,39.164,0,0,0,-0.19,0,8, SPS (3), Doppler (2), None (),0,0,0,0,0,0,0,-0.83,-0.78,-0.86,0,0,0,-9.626,-0.21,0.124
0.888,0,0.88, 2021/07/20 18:25:36.888 PM,1310840737,239136.888,37.42896972,-122.1844044,39.164,0,0,0,-0.19,0,8, SPS (3), Doppler (2), None (),0,0,0,0,0,0,0,-0.66,-0.36,-1.55,0,0,0,-9.711,-0.309,0.205
0.9,0,0.892, 2021/07/20 18:25:36.900 PM,1310840737,239136.9,37.42896972,-122.1844044,39.164,0,0,0,-0.19,0,8, SPS (3), Doppler (2), None (),0,0,0,0,0,0,0,-0.96,-0.96,-1.17,0,0,0,-9.653,-0.281,0.194
0.908,0,0.9, 2021/07/20 18:25:36.908 PM,1310840737,239136.908,37.42896972,-122.1844044,39.164,0,0,0,0.04,0,8, SPS (3), Doppler (2), None (),0,0,0,0,0,0,0,-0.74,0.09,-0.84,0,0,0,-9.679,-0.329,0.183
0.92,0,0.912, 2021/07/20 18:25:36.920 PM,1310840737,239136.92,37.42896972,-122.1844044,39.164,0,0,0,0.04,0,8, SPS (3), Doppler (2), None (),0,0,0,0,0,0,0,-0.93,0.09,-0.56,0,0,0,-9.8,-0.333,-0.028
0.928,0,0.92, 2021/07/20 18:25:36.928 PM,1310840737,239136.928,37.42896972,-122.1844044,39.164,0,0,0,0.04,0,8, SPS (3), Doppler (2), None (),0,0,0,0,0,0,0,-0.3,-0.08,-0.92,0,0,0,-9.682,-0.367,0.161
0.94,0,0.932, 2021/07/20 18:25:36.940 PM,1310840737,239136.94,37.42896972,-122.1844044,39.164,0,0,0,0.04,0,8, SPS (3), Doppler (2), None (),0,0,0,0,0,0,0,-1.47,0.29,-0.28,0,0,0,-9.819,-0.579,0.067
0.948,0,0.94, 2021/07/20 18:25:36.948 PM,1310840737,239136.948,37.42896972,-122.1844044,39.164,0,0,0,0.04,0,8, SPS (3), Doppler (2), None (),0,0,0,0,0,0,0,-1.13,-0.45,-0.03,0,0,0,-9.724,-0.483,0.18
0.96,0,0.952, 2021/07/20 18:25:36.960 PM,1310840737,239136.96,37.42896972,-122.1844044,39.164,0,0,0,0.04,0,8, SPS (3), Doppler (2), None (),0,0,0,0,0,0,0,-0.59,-0.44,-0.19,0,0,0,-9.91,-0.304,0.012
0.968,0,0.96, 2021/07/20 18:25:36.968 PM,1310840737,239136.968,37.42896972,-122.1844044,39.164,0,0,0,0.04,0,8, SPS (3), Doppler (2), None (),0,0,0,0,0,0,0,-0.96,0.49,-0.04,0,0,0,-9.858,-0.391,0.048
0.98,0,0.972, 2021/07/20 18:25:36.980 PM,1310840737,239136.98,37.42896972,-122.1844044,39.164,0,0,0,0.04,0,8, SPS (3), Doppler (2), None (),0,0,0,0,0,0,0,-1.07,-0.03,0.72,0,0,0,-9.828,-0.266,0.04
0.988,0,0.98, 2021/07/20 18:25:36.988 PM,1310840737,239136.988,37.42896972,-122.1844044,39.164,0,0,0,0.04,0,8, SPS (3), Doppler (2), None (),0,0,0,0,0,0,0,-1.12,-0.53,-0.07,0,0,0,-9.923,-0.298,0.114
1,0,0.992, 2021/07/20 18:25:37.000 PM,1310840737,239137,37.42896972,-122.1844044,39.164,0,0,0,0.04,0,8, SPS (3), Doppler (2), None (),0,0,0,0,0,0,0,-1.81,-0.3,0.58,0,0,0,-9.88,-0.27,0.005
1.008,0,1, 2021/07/20 18:25:37.008 PM,1310840737,239137.008,37.42896972,-122.1844044,39.164,0,0,0,0.04,0,8, SPS (3), Doppler (2), None (),0,0,0,0,0,0,0,-0.95,-0.21,0.6,0,0,0,-9.947,-0.205,-0.04
1.02,0,1.012, 2021/07/20 18:25:37.020 PM,1310840737,239137.02,37.42896972,-122.1844044,39.164,0,0,0,0.04,0,8, SPS (3), Doppler (2), None (),0,0,0,0,0,0,0,-0.75,-0.08,0.06,0,0,0,-10.024,0.271,-0.788
1.028,0,1.02, 2021/07/20 18:25:37.028 PM,1310840737,239137.028,37.42896972,-122.1844044,39.164,0,0,0,0.04,0,8, SPS (3), Doppler (2), None (),0,0,0,0,0,0,0,-0.81,-0.12,0.29,0,0,0,-9.794,-0.086,-0.678
1.04,0,1.032, 2021/07/20 18:25:37.040 PM,1310840737,239137.04,37.42896972,-122.1844044,39.164,0,0,0,0.04,0,8, SPS (3), Doppler (2), None (),0,0,0,0,0,0,0,-1.55,-0.9,-0.1,0,0,0,-10.047,-0.002,-0.416
1.048,0,1.04, 2021/07/20 18:25:37.048 PM,1310840737,239137.048,37.42896972,-122.1844044,39.164,0,0,0,0.04,0,8, SPS (3), Doppler (2), None (),0,0,0,0,0,0,0,-0.55,-1.01,0.3,0,0,0,-9.993,0.28,-0.407
1.06,0,1.052, 2021/07/20 18:25:37.060 PM,1310840737,239137.06,37.42896972,-122.1844044,39.164,0,0,0,0.04,0,8, SPS (3), Doppler (2), None (),0,0,0,0,0,0,0,-1.33,-0.31,0.23,0,0,0,-10.114,0.054,-0.281
1.068,0,1.06, 2021/07/20 18:25:37.068 PM,1310840737,239137.068,37.42896972,-122.1844044,39.164,0,0,0,0.04,0,8, SPS (3), Doppler (2), None (),0,0,0,0,0,0,0,-1.41,0.26,-0.33,0,0,0,-10.14,-0.013,-0.201
1.08,0,1.072, 2021/07/20 18:25:37.080 PM,1310840737,239137.08,37.42896143,-122.1844046,39.35,0,0,0,0.04,0,8, SPS (3), Doppler (2), None (),0,0,0,0,0,0,0,-1.71,-1.33,-0.64,0,0,0,-10.096,-0.035,0.186
1.088,0,1.08, 2021/07/20 18:25:37.088 PM,1310840737,239137.088,37.42896143,-122.1844046,39.35,0,0,0,-0.32,0,8, SPS (3), Doppler (2), None (),0,0,0,0,0,0,0,-0.73,-0.61,-0.54,0,0,0,-9.876,-0.088,-0.104
1.1,0,1.092, 2021/07/20 18:25:37.100 PM,1310840737,239137.1,37.42896143,-122.1844046,39.35,0,0,0,-0.32,0,8, SPS (3), Doppler (2), None (),0,0,0,0,0,0,0,-0.79,-0.64,-0.55,0,0,0,-9.689,-0.033,-0.069
1.108,0,1.1, 2021/07/20 18:25:37.108 PM,1310840737,239137.108,37.42896143,-122.1844046,39.35,0,0,0,0.13,0,8, SPS (3), Doppler (2), None (),0,0,0,0,0,0,0,-1.7,-0.61,-0.69,0,0,0,-9.655,-0.204,0.014
1.12,0,1.112, 2021/07/20 18:25:37.120 PM,1310840737,239137.12,37.42896143,-122.1844046,39.35,0,0,0,0.13,0,8, SPS (3), Doppler (2), None (),0,0,0,0,0,0,0,-0.54,-1,-0.33,0,0,0,-9.425,-0.273,-0.024
1.128,0,1.12, 2021/07/20 18:25:37.128 PM,1310840737,239137.128,37.42896143,-122.1844046,39.35,0,0,0,0.13,0,8, SPS (3), Doppler (2), None (),0,0,0,0,0,0,0,-0.91,-0.49,-0.21,0,0,0,-9.338,-0.208,-0.397
1.14,0,1.132, 2021/07/20 18:25:37.140 PM,1310840737,239137.14,37.42896143,-122.1844046,39.35,0,0,0,0.13,0,8, SPS (3), Doppler (2), None (),0,0,0,0,0,0,0,-1.33,-0.17,0.35,0,0,0,-9.121,-0.3,-0.342
1.148,0,1.14, 2021/07/20 18:25:37.148 PM,1310840737,239137.148,37.42896143,-122.1844046,39.35,0,0,0,0.13,0,8, SPS (3), Doppler (2), None (),0,0,0,0,0,0,0,-1.67,0.71,-0.09,0,0,0,-9.214,-0.043,-0.687
1.16,0,1.152, 2021/07/20 18:25:37.160 PM,1310840737,239137.16,37.42896143,-122.1844046,39.35,0,0,0,0.13,0,8, SPS (3), Doppler (2), None (),0,0,0,0,0,0,0,-0.3,0.1,0.22,0,0,0,-9.294,-0.092,-0.521
1.168,0,1.16, 2021/07/20 18:25:37.168 PM,1310840737,239137.168,37.42896143,-122.1844046,39.35,0,0,0,0.13,0,8, SPS (3), Doppler (2), None (),0,0,0,0,0,0,0,-0.79,0.27,-0.48,0,0,0,-9.6,0.02,-0.629
1.18,0,1.172, 2021/07/20 18:25:37.180 PM,1310840737,239137.18,37.42896143,-122.1844046,39.35,0,0,0,0.13,0,8, SPS (3), Doppler (2), None (),0,0,0,0,0,0,0,-0.41,0.96,-0.5,0,0,0,-9.524,-0.187,-0.708
1.188,0,1.18, 2021/07/20 18:25:37.188 PM,1310840737,239137.188,37.42896143,-122.1844046,39.35,0,0,0,0.13,0,8, SPS (3), Doppler (2), None (),0,0,0,0,0,0,0,-1.49,1.27,-0.55,0,0,0,-9.793,-0.087,-0.71
1.2,0,1.192, 2021/07/20 18:25:37.200 PM,1310840737,239137.2,37.42896143,-122.1844046,39.35,0,0,0,0.13,0,8, SPS (3), Doppler (2), None (),0,0,0,0,0,0,0,-1.53,0.48,-1.45,0,0,0,-9.852,-0.122,-0.602
1.208,0,1.2, 2021/07/20 18:25:37.208 PM,1310840737,239137.208,37.42896143,-122.1844046,39.35,0,0,0,-0.11,0,8, SPS (3), Doppler (2), None (),0,0,0,0,0,0,0,-0.9,-0.09,-0.92,0,0,0,-10.002,-0.081,-0.717
1.22,0,1.212, 2021/07/20 18:25:37.220 PM,1310840737,239137.22,37.42896143,-122.1844046,39.35,0,0,0,-0.11,0,8, SPS (3), Doppler (2), None (),0,0,0,0,0,0,0,-1.36,-0.3,-1.4,0,0,0,-10.03,-0.1,-0.564
1.228,0,1.22, 2021/07/20 18:25:37.228 PM,1310840737,239137.228,37.42896143,-122.1844046,39.35,0,0,0,-0.11,0,8, SPS (3), Doppler (2), None (),0,0,0,0,0,0,0,-1.06,-0.39,-1.51,0,0,0,-10.079,-0.26,-0.675
1.24,0,1.232, 2021/07/20 18:25:37.240 PM,1310840737,239137.24,37.42896143,-122.1844046,39.35,0,0,0,-0.11,0,8, SPS (3), Doppler (2), None (),0,0,0,0,0,0,0,-0.85,-0.34,-0.69,0,0,0,-9.844,-0.117,-0.751
1.248,0,1.24, 2021/07/20 18:25:37.248 PM,1310840737,239137.248,37.42896143,-122.1844046,39.35,0,0,0,-0.11,0,8, SPS (3), Doppler (2), None (),0,0,0,0,0,0,0,-0.7,-1.02,-1.39,0,0,0,-9.835,-0.086,-0.756
1.26,0,1.252, 2021/07/20 18:25:37.260 PM,1310840737,239137.26,37.42896143,-122.1844046,39.35,0,0,0,-0.11,0,8, SPS (3), Doppler (2), None (),0,0,0,0,0,0,0,-1.08,-1.03,-1.41,0,0,0,-9.579,-0.114,-0.766
1.268,0,1.26, 2021/07/20 18:25:37.268 PM,1310840737,239137.268,37.42896143,-122.1844046,39.35,0,0,0,-0.11,0,8, SPS (3), Doppler (2), None (),0,0,0,0,0,0,0,-1.29,-0.29,-0.84,0,0,0,-9.622,-0.159,-0.944
1.28,0,1.272, 2021/07/20 18:25:37.280 PM,1310840737,239137.28,37.42896143,-122.1844046,39.35,0,0,0,-0.11,0,8, SPS (3), Doppler (2), None (),0,0,0,0,0,0,0,-1.14,-1,-0.78,0,0,0,-9.544,-0.076,-0.906
1.288,0,1.28, 2021/07/20 18:25:37.288 PM,1310840737,239137.288,37.42896143,-122.1844046,39.35,0,0,0,-0.11,0,8, SPS (3), Doppler (2), None (),0,0,0,0,0,0,0,-0.29,-0.68,-0.46,0,0,0,-9.497,-0.073,-0.9
1.3,0,1.292, 2021/07/20 18:25:37.300 PM,1310840737,239137.3,37.42896143,-122.1844046,39.35,0,0,0,-0.11,0,8, SPS (3), Doppler (2), None (),0,0,0,0,0,0,0,-0.43,-0.18,-0.92,0,0,0,-9.639,-0.03,-0.81
1.308,0,1.3, 2021/07/20 18:25:37.308 PM,1310840737,239137.308,37.42896143,-122.1844046,39.35,0,0,0,-0.04,0,8, SPS (3), Doppler (2), None (),0,0,0,0,0,0,0,-0.94,-0.59,-0.87,0,0,0,-9.565,-0.162,-0.813
1.32,0,1.312, 2021/07/20 18:25:37.320 PM,1310840737,239137.32,37.42896143,-122.1844046,39.35,0,0,0,-0.04,0,8, SPS (3), Doppler (2), None (),0,0,0,0,0,0,0,-0.4,-0.16,-1.68,0,0,0,-9.717,-0.265,-0.64
1.328,0,1.32, 2021/07/20 18:25:37.328 PM,1310840737,239137.328,37.42896143,-122.1844046,39.35,0,0,0,-0.04,0,8, SPS (3), Doppler (2), None (),0,0,0,0,0,0,0,-0.47,-0.18,-0.43,0,0,0,-9.764,-0.353,-0.57
1.34,0,1.332, 2021/07/20 18:25:37.340 PM,1310840737,239137.34,37.42896143,-122.1844046,39.35,0,0,0,-0.04,0,8, SPS (3), Doppler (2), None (),0,0,0,0,0,0,0,-0.65,0.4,-0.36,0,0,0,-9.776,-0.376,-0.633
1.348,0,1.34, 2021/07/20 18:25:37.348 PM,1310840737,239137.348,37.42896143,-122.1844046,39.35,0,0,0,-0.04,0,8, SPS (3), Doppler (2), None (),0,0,0,0,0,0,0,-0.5,0.78,-0.11,0,0,0,-9.911,-0.42,-0.549
1.36,0,1.352, 2021/07/20 18:25:37.360 PM,1310840737,239137.36,37.42896143,-122.1844046,39.35,0,0,0,-0.04,0,8, SPS (3), Doppler (2), None (),0,0,0,0,0,0,0,-0.65,0.09,-0.21,0,0,0,-9.8,-0.507,-0.579
1.368,0,1.36, 2021/07/20 18:25:37.368 PM,1310840737,239137.368,37.42896143,-122.1844046,39.35,0,0,0,-0.04,0,8, SPS (3), Doppler (2), None (),0,0,0,0,0,0,0,-0.33,1.47,-0.26,0,0,0,-9.713,-0.605,-0.765
1.38,0,1.372, 2021/07/20 18:25:37.380 PM,1310840737,239137.38,37.42896143,-122.1844046,39.35,0,0,0,-0.04,0,8, SPS (3), Doppler (2), None (),0,0,0,0,0,0,0,-1.01,0.47,-0.07,0,0,0,-10.079,-0.693,-0.209
1.388,0,1.38, 2021/07/20 18:25:37.388 PM,1310840737,239137.388,37.42896143,-122.1844046,39.35,0,0,0,-0.04,0,8, SPS (3), Doppler (2), None (),0,0,0,0,0,0,0,-0.78,0.76,0.98,0,0,0,-9.716,-0.006,-1.305
1.4,0,1.392, 2021/07/20 18:25:37.400 PM,1310840737,239137.4,37.42896143,-122.1844046,39.35,0,0,0,-0.04,0,8, SPS (3), Doppler (2), None (),0,0,0,0,0,0,0,-0.46,0.95,-0.1,0,0,0,-9.954,-0.329,-0.839
1.408,0,1.4, 2021/07/20 18:25:37.408 PM,1310840737,239137.408,37.42896143,-122.1844046,39.35,0,0,0,-0.04,0,8, SPS (3), Doppler (2), None (),0,0,0,0,0,0,0,-0.37,1.03,0.45,0,0,0,-9.923,-0.416,-1.034
1.42,0,1.412, 2021/07/20 18:25:37.420 PM,1310840737,239137.42,37.42896143,-122.1844046,39.35,0,0,0,0.04,0,8, SPS (3), Doppler (2), None (),0,0,0,0,0,0,0,-1.11,1.1,-0.4,0,0,0,-10.029,-0.233,-1.1
1.428,0,1.42, 2021/07/20 18:25:37.428 PM,1310840737,239137.428,37.42896143,-122.1844046,39.35,0,0,0,0.04,0,8, SPS (3), Doppler (2), None (),0,0,0,0,0,0,0,-0.54,0.64,-0.2,0,0,0,-10.006,-0.226,-1.023
1.44,0,1.432, 2021/07/20 18:25:37.440 PM,1310840737,239137.44,37.42896143,-122.1844046,39.35,0,0,0,0.04,0,8, SPS (3), Doppler (2), None (),0,0,0,0,0,0,0,-0.13,0.07,-0.72,0,0,0,-10.176,-0.303,-0.982
1.448,0,1.44, 2021/07/20 18:25:37.448 PM,1310840737,239137.448,37.42896143,-122.1844046,39.35,0,0,0,0.04,0,8, SPS (3), Doppler (2), None (),0,0,0,0,0,0,0,-0.89,0,-0.03,0,0,0,-10.016,-0.221,-0.796
1.46,0,1.452, 2021/07/20 18:25:37.460 PM,1310840737,239137.46,37.42896143,-122.1844046,39.35,0,0,0,0.04,0,8, SPS (3), Doppler (2), None (),0,0,0,0,0,0,0,-0.49,-0.59,0.02,0,0,0,-10.011,-0.218,-0.772
1.468,0,1.46, 2021/07/20 18:25:37.468 PM,1310840737,239137.468,37.42896143,-122.1844046,39.35,0,0,0,0.04,0,8, SPS (3), Doppler (2), None (),0,0,0,0,0,0,0,0.05,-0.94,-0.09,0,0,0,-9.934,-0.202,-0.832
1.48,0,1.472, 2021/07/20 18:25:37.480 PM,1310840737,239137.48,37.42896143,-122.1844046,39.35,0,0,0,0.04,0,8, SPS (3), Doppler (2), None (),0,0,0,0,0,0,0,-0.8,-0.56,0.28,0,0,0,-9.954,-0.078,-0.584
1.488,0,1.48, 2021/07/20 18:25:37.488 PM,1310840737,239137.488,37.42896143,-122.1844046,39.35,0,0,0,0.04,0,8, SPS (3), Doppler (2), None (),0,0,0,0,0,0,0,-0.54,-0.23,-1.14,0,0,0,-9.892,-0.055,-0.811
1.5,0,1.492, 2021/07/20 18:25:37.500 PM,1310840738,239137.5,37.42896143,-122.1844046,39.35,0,0,0,0.04,0,8, SPS (3), Doppler (2), None (),0,0,0,0,0,0,0,-0.4,-0.82,-0.32,0,0,0,-9.672,-0.147,-0.788
1.508,0,1.5, 2021/07/20 18:25:37.508 PM,1310840738,239137.508,37.42896143,-122.1844046,39.35,0,0,0,0.04,0,8, SPS (3), Doppler (2), None (),0,0,0,0,0,0,0,-0.47,-0.49,-0.41,0,0,0,-9.632,0.032,-0.817
1.52,0,1.512, 2021/07/20 18:25:37.520 PM,1310840738,239137.52,37.42896143,-122.1844046,39.35,0,0,0,0.04,0,8, SPS (3), Doppler (2), None (),0,0,0,0,0,0,0,-0.74,0.4,-0.37,0,0,0,-9.554,0.037,-0.906
1.528,0,1.52, 2021/07/20 18:25:37.528 PM,1310840738,239137.528,37.42896143,-122.1844046,39.35,0,0,0,0.04,0,8, SPS (3), Doppler (2), None (),0,0,0,0,0,0,0,0.25,0.18,-0.77,0,0,0,-9.454,0.02,-1.171
1.54,0,1.532, 2021/07/20 18:25:37.540 PM,1310840738,239137.54,37.42896143,-122.1844046,39.35,0,0,0,0.04,0,8, SPS (3), Doppler (2), None (),0,0,0,0,0,0,0,0.44,-0.01,-1.22,0,0,0,-9.503,-0.061,-0.951
1.548,0,1.54, 2021/07/20 18:25:37.548 PM,1310840738,239137.548,37.42896143,-122.1844046,39.35,0,0,0,0.04,0,8, SPS (3), Doppler (2), None (),0,0,0,0,0,0,0,-0.57,1.36,-0.72,0,0,0,-9.47,-0.153,-1.028
1.56,0,1.552, 2021/07/20 18:25:37.560 PM,1310840738,239137.56,37.42896143,-122.1844046,39.35,0,0,0,0.04,0,8, SPS (3), Doppler (2), None (),0,0,0,0,0,0,0,0.12,0.19,-1.54,0,0,0,-9.534,-0.155,-0.827
1.568,0,1.56, 2021/07/20 18:25:37.568 PM,1310840738,239137.568,37.42895231,-122.1844051,39.42,0,0,0,0.04,0,8, SPS (3), Doppler (2), None (),0,0,0,0,0,0,0,-0.46,0.64,-0.93,0,0,0,-9.608,-0.366,-0.828
1.58,0,1.572, 2021/07/20 18:25:37.580 PM,1310840738,239137.58,37.42895231,-122.1844051,39.42,0,0,0,0.09,0,8, SPS (3), Doppler (2), None (),0,0,0,0,0,0,0,0.98,1.04,-0.28,0,0,0,-9.653,-0.384,-0.979
1.588,0,1.58, 2021/07/20 18:25:37.588 PM,1310840738,239137.588,37.42895231,-122.1844051,39.42,0,0,0,0.09,0,8, SPS (3), Doppler (2), None (),0,0,0,0,0,0,0,0.09,-0.47,0.07,0,0,0,-9.72,-0.437,-0.822
1.6,0,1.592, 2021/07/20 18:25:37.600 PM,1310840738,239137.6,37.42895231,-122.1844051,39.42,0,0,0,0.09,0,8, SPS (3), Doppler (2), None (),0,0,0,0,0,0,0,0.67,0.85,-0.26,0,0,0,-9.804,-0.605,-0.914
1.608,0,1.6, 2021/07/20 18:25:37.608 PM,1310840738,239137.608,37.42895231,-122.1844051,39.42,0,0,0,-0.1,0,8, SPS (3), Doppler (2), None (),0,0,0,0,0,0,0,1.12,0.01,-0.19,0,0,0,-9.815,-0.453,-0.919
1.62,0,1.612, 2021/07/20 18:25:37.620 PM,1310840738,239137.62,37.42895231,-122.1844051,39.42,0,0,0,-0.1,0,8, SPS (3), Doppler (2), None (),0,0,0,0,0,0,0,1.27,0.11,-0.32,0,0,0,-9.787,-0.583,-1.027
1.628,0,1.62, 2021/07/20 18:25:37.628 PM,1310840738,239137.628,37.42895231,-122.1844051,39.42,0,0,0,-0.1,0,8, SPS (3), Doppler (2), None (),0,0,0,0,0,0,0,0.42,0.39,0,0,0,0,-9.785,-0.426,-1.015
1.64,0,1.632, 2021/07/20 18:25:37.640 PM,1310840738,239137.64,37.42895231,-122.1844051,39.42,0,0,0,-0.1,0,8, SPS (3), Doppler (2), None (),0,0,0,0,0,0,0,0.19,0.46,0.14,0,0,0,-9.852,-0.43,-1.132
1.648,0,1.64, 2021/07/20 18:25:37.648 PM,1310840738,239137.648,37.42895231,-122.1844051,39.42,0,0,0,-0.1,0,8, SPS (3), Doppler (2), None (),0,0,0,0,0,0,0,0.86,0.17,-0.49,0,0,0,-9.929,-0.353,-1.046
1.66,0,1.652, 2021/07/20 18:25:37.660 PM,1310840738,239137.66,37.42895231,-122.1844051,39.42,0,0,0,-0.1,0,8, SPS (3), Doppler (2), None (),0,0,0,0,0,0,0,1.11,0.19,-0.45,0,0,0,-9.864,-0.491,-1.182
1.668,0,1.66, 2021/07/20 18:25:37.668 PM,1310840738,239137.668,37.42895231,-122.1844051,39.42,0,0,0,-0.1,0,8, SPS (3), Doppler (2), None (),0,0,0,0,0,0,0,1.15,0.11,-0.24,0,0,0,-9.871,-0.471,-1.265
1.68,0,1.672, 2021/07/20 18:25:37.680 PM,1310840738,239137.68,37.42895231,-122.1844051,39.42,0,0,0,-0.1,0,8, SPS (3), Doppler (2), None (),0,0,0,0,0,0,0,1.45,-0.19,0.16,0,0,0,-9.989,-0.3,-1.089
1.688,0,1.68, 2021/07/20 18:25:37.688 PM,1310840738,239137.688,37.42895231,-122.1844051,39.42,0,0,0,-0.1,0,8, SPS (3), Doppler (2), None (),0,0,0,0,0,0,0,1.24,-0.06,0.13,0,0,0,-9.934,-0.311,-1.176
1.7,0,1.692, 2021/07/20 18:25:37.700 PM,1310840738,239137.7,37.42895231,-122.1844051,39.42,0,0,0,-0.1,0,8, SPS (3), Doppler (2), None (),0,0,0,0,0,0,0,1.62,-0.43,0.24,0,0,0,-9.851,-0.409,-1.073
1.708,0,1.7, 2021/07/20 18:25:37.708 PM,1310840738,239137.708,37.42895231,-122.1844051,39.42,0,0,0,-0.05,0,8, SPS (3), Doppler (2), None (),0,0,0,0,0,0,0,1.91,-0.8,0.39,0,0,0,-9.75,-0.222,-0.945
1.72,0,1.712, 2021/07/20 18:25:37.720 PM,1310840738,239137.72,37.42895231,-122.1844051,39.42,0,0,0,-0.05,0,8, SPS (3), Doppler (2), None (),0,0,0,0,0,0,0,1.08,-0.62,1.11,0,0,0,-9.763,-0.237,-0.952
1.728,0,1.72, 2021/07/20 18:25:37.728 PM,1310840738,239137.728,37.42895231,-122.1844051,39.42,0,0,0,-0.05,0,8, SPS (3), Doppler (2), None (),0,0,0,0,0,0,0,1.62,-0.79,0.74,0,0,0,-9.608,-0.071,-0.868
1.74,0,1.732, 2021/07/20 18:25:37.740 PM,1310840738,239137.74,37.42895231,-122.1844051,39.42,0,0,0,-0.05,0,8, SPS (3), Doppler (2), None (),0,0,0,0,0,0,0,1.59,-0.4,0.56,0,0,0,-9.646,0.122,-0.911
1.748,0,1.74, 2021/07/20 18:25:37.748 PM,1310840738,239137.748,37.42895231,-122.1844051,39.42,0,0,0,-0.05,0,8, SPS (3), Doppler (2), None (),0,0,0,0,0,0,0,1.8,-1.08,-0.18,0,0,0,-9.612,0.204,-0.99
1.76,0,1.752, 2021/07/20 18:25:37.760 PM,1310840738,239137.76,37.42895231,-122.1844051,39.42,0,0,0,-0.05,0,8, SPS (3), Doppler (2), None (),0,0,0,0,0,0,0,1.76,-0.82,-1.18,0,0,0,-9.686,0.184,-0.936
1.768,0,1.76, 2021/07/20 18:25:37.768 PM,1310840738,239137.768,37.42895231,-122.1844051,39.42,0,0,0,-0.05,0,8, SPS (3), Doppler (2), None (),0,0,0,0,0,0,0,2.15,0.13,-1.16,0,0,0,-9.568,0.113,-0.944
1.78,0,1.772, 2021/07/20 18:25:37.780 PM,1310840738,239137.78,37.42895231,-122.1844051,39.42,0,0,0,-0.05,0,8, SPS (3), Doppler (2), None (),0,0,0,0,0,0,0,1.33,0.52,-2.23,0,0,0,-9.833,-0.015,-1.039
1.788,0,1.78, 2021/07/20 18:25:37.788 PM,1310840738,239137.788,37.42895231,-122.1844051,39.42,0,0,0,-0.05,0,8, SPS (3), Doppler (2), None (),0,0,0,0,0,0,0,1.29,-0.1,-2.07,0,0,0,-9.795,0.11,-0.92
1.8,0,1.792, 2021/07/20 18:25:37.800 PM,1310840738,239137.8,37.42895231,-122.1844051,39.42,0,0,0,-0.05,0,8, SPS (3), Doppler (2), None (),0,0,0,0,0,0,0,1.78,0.16,-1.38,0,0,0,-9.997,-0.178,-0.777
1.808,0,1.8, 2021/07/20 18:25:37.808 PM,1310840738,239137.808,37.42895231,-122.1844051,39.42,0,0,0,-0.14,0,8, SPS (3), Doppler (2), None (),0,0,0,0,0,0,0,2.14,0.8,-1.09,0,0,0,-9.994,-0.13,-0.944
1.82,0,1.812, 2021/07/20 18:25:37.820 PM,1310840738,239137.82,37.42895231,-122.1844051,39.42,0,0,0,-0.14,0,8, SPS (3), Doppler (2), None (),0,0,0,0,0,0,0,2.36,0.2,-0.36,0,0,0,-10.047,-0.12,-0.824
1.828,0,1.82, 2021/07/20 18:25:37.828 PM,1310840738,239137.828,37.42895231,-122.1844051,39.42,0,0,0,-0.14,0,8, SPS (3), Doppler (2), None (),0,0,0,0,0,0,0,1.89,0.04,-0.57,0,0,0,-10.192,-0.209,-0.805
1.84,0,1.832, 2021/07/20 18:25:37.840 PM,1310840738,239137.84,37.42895231,-122.1844051,39.42,0,0,0,-0.14,0,8, SPS (3), Doppler (2), None (),0,0,0,0,0,0,0,2.02,-0.2,-0.37,0,0,0,-10.262,-0.349,-0.72
1.848,0,1.84, 2021/07/20 18:25:37.848 PM,1310840738,239137.848,37.42895231,-122.1844051,39.42,0,0,0,-0.14,0,8, SPS (3), Doppler (2), None (),0,0,0,0,0,0,0,1.53,-0.05,-0.4,0,0,0,-10.264,-0.199,-0.99
1.86,0,1.852, 2021/07/20 18:25:37.860 PM,1310840738,239137.86,37.42895231,-122.1844051,39.42,0,0,0,-0.14,0,8, SPS (3), Doppler (2), None (),0,0,0,0,0,0,0,1.6,-0.01,0.24,0,0,0,-10.257,-0.187,-0.994
1.868,0,1.86, 2021/07/20 18:25:37.868 PM,1310840738,239137.868,37.42895231,-122.1844051,39.42,0,0,0,-0.14,0,8, SPS (3), Doppler (2), None (),0,0,0,0,0,0,0,1.94,0.45,-0.55,0,0,0,-10.195,-0.469,-0.994
1.88,0,1.872, 2021/07/20 18:25:37.880 PM,1310840738,239137.88,37.42895231,-122.1844051,39.42,0,0,0,-0.14,0,8, SPS (3), Doppler (2), None (),0,0,0,0,0,0,0,2.17,-0.81,-0.99,0,0,0,-9.919,-0.473,-0.832
1.888,0,1.88, 2021/07/20 18:25:37.888 PM,1310840738,239137.888,37.42895231,-122.1844051,39.42,0,0,0,-0.14,0,8, SPS (3), Doppler (2), None (),0,0,0,0,0,0,0,1.23,-0.45,-1.26,0,0,0,-9.959,-0.527,-0.985
1.9,0,1.892, 2021/07/20 18:25:37.900 PM,1310840738,239137.9,37.42895231,-122.1844051,39.42,0,0,0,-0.14,0,8, SPS (3), Doppler (2), None (),0,0,0,0,0,0,0,2.23,-0.34,-0.12,0,0,0,-9.787,-0.6,-1.013
1.908,0,1.9, 2021/07/20 18:25:37.908 PM,1310840738,239137.908,37.42895231,-122.1844051,39.42,0,0,0,-0.08,0,8, SPS (3), Doppler (2), None (),0,0,0,0,0,0,0,2.2,0.34,-0.17,0,0,0,-9.811,-0.442,-0.905
1.92,0,1.912, 2021/07/20 18:25:37.920 PM,1310840738,239137.92,37.42895231,-122.1844051,39.42,0,0,0,-0.08,0,8, SPS (3), Doppler (2), None (),0,0,0,0,0,0,0,2.36,0.29,0.26,0,0,0,-9.706,-0.308,-0.833
1.928,0,1.92, 2021/07/20 18:25:37.928 PM,1310840738,239137.928,37.42895231,-122.1844051,39.42,0,0,0,-0.08,0,8, SPS (3), Doppler (2), None (),0,0,0,0,0,0,0,2.98,0.37,-0.28,0,0,0,-9.832,-0.158,-0.929
1.94,0,1.932, 2021/07/20 18:25:37.940 PM,1310840738,239137.94,37.42895231,-122.1844051,39.42,0,0,0,-0.08,0,8, SPS (3), Doppler (2), None (),0,0,0,0,0,0,0,2.39,0.02,0.3,0,0,0,-9.725,-0.168,-0.612
1.948,0,1.94, 2021/07/20 18:25:37.948 PM,1310840738,239137.948,37.42895231,-122.1844051,39.42,0,0,0,-0.08,0,8, SPS (3), Doppler (2), None (),0,0,0,0,0,0,0,1.83,0.79,0.63,0,0,0,-9.862,0.005,-0.803
1.96,0,1.952, 2021/07/20 18:25:37.960 PM,1310840738,239137.96,37.42895231,-122.1844051,39.42,0,0,0,-0.08,0,8, SPS (3), Doppler (2), None (),0,0,0,0,0,0,0,1.77,1.06,0.91,0,0,0,-9.649,0.008,-0.801
1.968,0,1.96, 2021/07/20 18:25:37.968 PM,1310840738,239137.968,37.42895231,-122.1844051,39.42,0,0,0,-0.08,0,8, SPS (3), Doppler (2), None (),0,0,0,0,0,0,0,2.28,0.68,0.41,0,0,0,-9.719,0.06,-0.745
1.98,0,1.972, 2021/07/20 18:25:37.980 PM,1310840738,239137.98,37.42895231,-122.1844051,39.42,0,0,0,-0.08,0,8, SPS (3), Doppler (2), None (),0,0,0,0,0,0,0,2.12,0.4,-0.27,0,0,0,-9.668,0.079,-0.794
1.988,0,1.98, 2021/07/20 18:25:37.988 PM,1310840738,239137.988,37.42895231,-122.1844051,39.42,0,0,0,-0.08,0,8, SPS (3), Doppler (2), None (),0,0,0,0,0,0,0,1.62,0.95,-0.71,0,0,0,-9.676,-0.072,-0.679
2,0,1.992, 2021/07/20 18:25:38.000 PM,1310840738,239138,37.42895231,-122.1844051,39.42,0,0,0,-0.08,0,8, SPS (3), Doppler (2), None (),0,0,0,0,0,0,0,2.43,1.25,-0.01,0,0,0,-9.491,0.092,-0.826
2.008,0,2, 2021/07/20 18:25:38.008 PM,1310840738,239138.008,37.42895231,-122.1844051,39.42,0,0,0,-0.08,0,8, SPS (3), Doppler (2), None (),0,0,0,0,0,0,0,2.61,1.58,-0.01,0,0,0,-9.447,0.091,-0.932
2.02,0,2.012, 2021/07/20 18:25:38.020 PM,1310840738,239138.02,37.42895231,-122.1844051,39.42,0,0,0,-0.08,0,8, SPS (3), Doppler (2), None (),0,0,0,0,0,0,0,1.93,1.03,-0.04,0,0,0,-9.582,0.175,-0.734
2.028,0,2.02, 2021/07/20 18:25:38.028 PM,1310840738,239138.028,37.42895231,-122.1844051,39.42,0,0,0,-0.08,0,8, SPS (3), Doppler (2), None (),0,0,0,0,0,0,0,1.79,1.36,-0.51,0,0,0,-9.492,-0.011,-0.813
2.04,0,2.032, 2021/07/20 18:25:38.040 PM,1310840738,239138.04,37.42895231,-122.1844051,39.42,0,0,0,-0.08,0,8, SPS (3), Doppler (2), None (),0,0,0,0,0,0,0,2.38,0.78,-0.21,0,0,0,-9.666,-0.057,-0.796
2.048,0,2.04, 2021/07/20 18:25:38.048 PM,1310840738,239138.048,37.42895231,-122.1844051,39.42,0,0,0,-0.08,0,8, SPS (3), Doppler (2), None (),0,0,0,0,0,0,0,1.65,1.6,-0.05,0,0,0,-9.751,-0.018,-0.815
2.06,0,2.052, 2021/07/20 18:25:38.060 PM,1310840738,239138.06,37.42895231,-122.1844051,39.42,0,0,0,-0.08,0,8, SPS (3), Doppler (2), None (),0,0,0,0,0,0,0,2.32,0.53,0.3,0,0,0,-9.739,-0.045,-0.843
2.068,0,2.06, 2021/07/20 18:25:38.068 PM,1310840738,239138.068,37.42895231,-122.1844051,39.42,0,0,0,-0.08,0,8, SPS (3), Doppler (2), None (),0,0,0,0,0,0,0,1.73,0.66,-0.03,0,0,0,-9.935,-0.149,-0.869
2.08,0,2.072, 2021/07/20 18:25:38.080 PM,1310840738,239138.08,37.42894276,-122.1844061,39.559,0,0,0,-0.08,0,8, SPS (3), Doppler (2), None (),0,0,0,0,0,0,0,2.29,1.1,-0.04,0,0,0,-9.973,-0.069,-0.813
2.088,0,2.08, 2021/07/20 18:25:38.088 PM,1310840738,239138.088,37.42894276,-122.1844061,39.559,0,0,0,-0.12,0,8, SPS (3), Doppler (2), None (),0,0,0,0,0,0,0,2.29,0.31,-0.56,0,0,0,-9.986,-0.14,-0.971
2.1,0,2.092, 2021/07/20 18:25:38.100 PM,1310840738,239138.1,37.42894276,-122.1844061,39.559,0,0,0,-0.12,0,8, SPS (3), Doppler (2), None (),0,0,0,0,0,0,0,2.86,0.37,-0.55,0,0,0,-9.95,0.016,-0.973
2.108,0,2.1, 2021/07/20 18:25:38.108 PM,1310840738,239138.108,37.42894276,-122.1844061,39.559,0,0,0,-0.12,0,8, SPS (3), Doppler (2), None (),0,0,0,0,0,0,0,3.32,0.64,0.18,0,0,0,-9.942,-0.053,-0.904
2.12,0,2.112, 2021/07/20 18:25:38.120 PM,1310840738,239138.12,37.42894276,-122.1844061,39.559,0,0,0,0.14,0,8, SPS (3), Doppler (2), None (),0,0,0,0,0,0,0,2.03,0.05,-0.87,0,0,0,-9.778,0.05,-0.713
2.128,0,2.12, 2021/07/20 18:25:38.128 PM,1310840738,239138.128,37.42894276,-122.1844061,39.559,0,0,0,0.14,0,8, SPS (3), Doppler (2), None (),0,0,0,0,0,0,0,1.67,0.59,-1.39,0,0,0,-9.849,0.087,-0.9
2.14,0,2.132, 2021/07/20 18:25:38.140 PM,1310840738,239138.14,37.42894276,-122.1844061,39.559,0,0,0,0.14,0,8, SPS (3), Doppler (2), None (),0,0,0,0,0,0,0,2.04,0.75,-2.47,0,0,0,-9.877,0.235,-0.853
2.148,0,2.14, 2021/07/20 18:25:38.148 PM,1310840738,239138.148,37.42894276,-122.1844061,39.559,0,0,0,0.14,0,8, SPS (3), Doppler (2), None (),0,0,0,0,0,0,0,2.71,0.91,-1.22,0,0,0,-9.836,0.138,-0.752
2.16,0,2.152, 2021/07/20 18:25:38.160 PM,1310840738,239138.16,37.42894276,-122.1844061,39.559,0,0,0,0.14,0,8, SPS (3), Doppler (2), None (),0,0,0,0,0,0,0,2.1,0.6,-2.34,0,0,0,-9.923,0.142,-0.782
2.168,0,2.16, 2021/07/20 18:25:38.168 PM,1310840738,239138.168,37.42894276,-122.1844061,39.559,0,0,0,0.14,0,8, SPS (3), Doppler (2), None (),0,0,0,0,0,0,0,2.16,1.18,-2,0,0,0,-9.839,0.02,-0.662
2.18,0,2.172, 2021/07/20 18:25:38.180 PM,1310840738,239138.18,37.42894276,-122.1844061,39.559,0,0,0,0.14,0,8, SPS (3), Doppler (2), None (),0,0,0,0,0,0,0,2.46,1.36,-1.75,0,0,0,-9.786,-0.14,-0.824
2.188,0,2.18, 2021/07/20 18:25:38.188 PM,1310840738,239138.188,37.42894276,-122.1844061,39.559,0,0,0,0.14,0,8, SPS (3), Doppler (2), None (),0,0,0,0,0,0,0,2.14,0.98,-1.52,0,0,0,-9.704,-0.007,-0.77
2.2,0,2.192, 2021/07/20 18:25:38.200 PM,1310840738,239138.2,37.42894276,-122.1844061,39.559,0,0,0,0.14,0,8, SPS (3), Doppler (2), None (),0,0,0,0,0,0,0,2.82,0.54,-1.69,0,0,0,-9.68,-0.149,-0.821
2.208,0,2.2, 2021/07/20 18:25:38.208 PM,1310840738,239138.208,37.42894276,-122.1844061,39.559,0,0,0,-0.11,0,8, SPS (3), Doppler (2), None (),0,0,0,0,0,0,0,1.93,1.03,-0.94,0,0,0,-9.522,-0.086,-0.59
2.22,0,2.212, 2021/07/20 18:25:38.220 PM,1310840738,239138.22,37.42894276,-122.1844061,39.559,0,0,0,-0.11,0,8, SPS (3), Doppler (2), None (),0,0,0,0,0,0,0,2.55,1.26,-1.52,0,0,0,-9.505,-0.149,-0.713
2.228,0,2.22, 2021/07/20 18:25:38.228 PM,1310840738,239138.228,37.42894276,-122.1844061,39.559,0,0,0,-0.11,0,8, SPS (3), Doppler (2), None (),0,0,0,0,0,0,0,1.69,1.44,-0.58,0,0,0,-9.478,-0.134,-0.722
2.24,0,2.232, 2021/07/20 18:25:38.240 PM,1310840738,239138.24,37.42894276,-122.1844061,39.559,0,0,0,-0.11,0,8, SPS (3), Doppler (2), None (),0,0,0,0,0,0,0,2.09,2.22,-0.9,0,0,0,-9.489,-0.29,-0.721
2.248,0,2.24, 2021/07/20 18:25:38.248 PM,1310840738,239138.248,37.42894276,-122.1844061,39.559,0,0,0,-0.11,0,8, SPS (3), Doppler (2), None (),0,0,0,0,0,0,0,2.58,1.9,-1.23,0,0,0,-9.481,-0.34,-0.914
2.26,0,2.252, 2021/07/20 18:25:38.260 PM,1310840738,239138.26,37.42894276,-122.1844061,39.559,0,0,0,-0.11,0,8, SPS (3), Doppler (2), None (),0,0,0,0,0,0,0,2.21,1.67,-1.33,0,0,0,-9.603,-0.276,-0.91
2.268,0,2.26, 2021/07/20 18:25:38.268 PM,1310840738,239138.268,37.42894276,-122.1844061,39.559,0,0,0,-0.11,0,8, SPS (3), Doppler (2), None (),0,0,0,0,0,0,0,2.19,2.25,-1.2,0,0,0,-9.744,-0.319,-0.85
2.28,0,2.272, 2021/07/20 18:25:38.280 PM,1310840738,239138.28,37.42894276,-122.1844061,39.559,0,0,0,-0.11,0,8, SPS (3), Doppler (2), None (),0,0,0,0,0,0,0,3.46,2.29,-0.93,0,0,0,-9.69,-0.196,-0.935
2.288,0,2.28, 2021/07/20 18:25:38.288 PM,1310840738,239138.288,37.42894276,-122.1844061,39.559,0,0,0,-0.11,0,8, SPS (3), Doppler (2), None (),0,0,0,0,0,0,0,3.08,2.36,-0.56,0,0,0,-9.789,-0.202,-0.972
2.3,0,2.292, 2021/07/20 18:25:38.300 PM,1310840738,239138.3,37.42894276,-122.1844061,39.559,0,0,0,-0.11,0,8, SPS (3), Doppler (2), None (),0,0,0,0,0,0,0,2.24,1.84,-0.8,0,0,0,-9.81,-0.26,-0.861
2.308,0,2.3, 2021/07/20 18:25:38.308 PM,1310840738,239138.308,37.42894276,-122.1844061,39.559,0,0,0,-0.23,0,8, SPS (3), Doppler (2), None (),0,0,0,0,0,0,0,2.4,2.42,-0.63,0,0,0,-9.88,-0.172,-0.972
2.32,0,2.312, 2021/07/20 18:25:38.320 PM,1310840738,239138.32,37.42894276,-122.1844061,39.559,0,0,0,-0.23,0,8, SPS (3), Doppler (2), None (),0,0,0,0,0,0,0,2.53,2.2,-0.33,0,0,0,-10.023,-0.248,-1.041
2.328,0,2.32, 2021/07/20 18:25:38.328 PM,1310840738,239138.328,37.42894276,-122.1844061,39.559,0,0,0,-0.23,0,8, SPS (3), Doppler (2), None (),0,0,0,0,0,0,0,2.5,1.42,-0.51,0,0,0,-9.835,-0.011,-0.832
2.34,0,2.332, 2021/07/20 18:25:38.340 PM,1310840738,239138.34,37.42894276,-122.1844061,39.559,0,0,0,-0.23,0,8, SPS (3), Doppler (2), None (),0,0,0,0,0,0,0,2.64,1.52,-1.01,0,0,0,-9.987,-0.082,-0.916
2.348,0,2.34, 2021/07/20 18:25:38.348 PM,1310840738,239138.348,37.42894276,-122.1844061,39.559,0,0,0,-0.23,0,8, SPS (3), Doppler (2), None (),0,0,0,0,0,0,0,2.58,1.66,-0.33,0,0,0,-9.829,-0.142,-0.832
2.36,0,2.352, 2021/07/20 18:25:38.360 PM,1310840738,239138.36,37.42894276,-122.1844061,39.559,0,0,0,-0.23,0,8, SPS (3), Doppler (2), None (),0,0,0,0,0,0,0,2.36,1.51,-0.27,0,0,0,-9.788,-0.198,-0.927
2.368,0,2.36, 2021/07/20 18:25:38.368 PM,1310840738,239138.368,37.42894276,-122.1844061,39.559,0,0,0,-0.23,0,8, SPS (3), Doppler (2), None (),0,0,0,0,0,0,0,2.37,1.31,0.29,0,0,0,-9.699,-0.144,-0.932
2.38,0,2.372, 2021/07/20 18:25:38.380 PM,1310840738,239138.38,37.42894276,-122.1844061,39.559,0,0,0,-0.23,0,8, SPS (3), Doppler (2), None (),0,0,0,0,0,0,0,3,1.63,-0.39,0,0,0,-9.812,-0.609,-0.471
2.388,0,2.38, 2021/07/20 18:25:38.388 PM,1310840738,239138.388,37.42894276,-122.1844061,39.559,0,0,0,-0.23,0,8, SPS (3), Doppler (2), None (),0,0,0,0,0,0,0,2.53,1.71,0.02,0,0,0,-9.626,0.142,-0.945
2.4,0,2.392, 2021/07/20 18:25:38.400 PM,1310840738,239138.4,37.42894276,-122.1844061,39.559,0,0,0,-0.23,0,8, SPS (3), Doppler (2), None (),0,0,0,0,0,0,0,1.57,2.22,0.29,0,0,0,-9.735,0.197,-0.724
2.408,0,2.4, 2021/07/20 18:25:38.408 PM,1310840738,239138.408,37.42894276,-122.1844061,39.559,0,0,0,-0.23,0,8, SPS (3), Doppler (2), None (),0,0,0,0,0,0,0,2.05,2.06,0.33,0,0,0,-9.758,-0.218,-0.752
2.42,0,2.412, 2021/07/20 18:25:38.420 PM,1310840738,239138.42,37.42894276,-122.1844061,39.559,0,0,0,-0.09,0,8, SPS (3), Doppler (2), None (),0,0,0,0,0,0,0,1.8,1.9,0.14,0,0,0,-9.67,0.027,-0.854
2.428,0,2.42, 2021/07/20 18:25:38.428 PM,1310840738,239138.428,37.42894276,-122.1844061,39.559,0,0,0,-0.09,0,8, SPS (3), Doppler (2), None (),0,0,0,0,0,0,0,2.5,2.01,0.13,0,0,0,-9.829,0.085,-0.571
2.44,0,2.432, 2021/07/20 18:25:38.440 PM,1310840738,239138.44,37.42894276,-122.1844061,39.559,0,0,0,-0.09,0,8, SPS (3), Doppler (2), None (),0,0,0,0,0,0,0,1.78,2.28,-0.51,0,0,0,-9.937,0.06,-0.851
2.448,0,2.44, 2021/07/20 18:25:38.448 PM,1310840738,239138.448,37.42894276,-122.1844061,39.559,0,0,0,-0.09,0,8, SPS (3), Doppler (2), None (),0,0,0,0,0,0,0,1.99,2.86,-0.3,0,0,0,-9.858,0.026,-0.632
2.46,0,2.452, 2021/07/20 18:25:38.460 PM,1310840738,239138.46,37.42894276,-122.1844061,39.559,0,0,0,-0.09,0,8, SPS (3), Doppler (2), None (),0,0,0,0,0,0,0,2.05,2.21,-0.99,0,0,0,-9.972,0.095,-0.792
2.468,0,2.46, 2021/07/20 18:25:38.468 PM,1310840738,239138.468,37.42894276,-122.1844061,39.559,0,0,0,-0.09,0,8, SPS (3), Doppler (2), None (),0,0,0,0,0,0,0,1.71,2.19,-0.34,0,0,0,-9.839,0.153,-0.907
2.48,0,2.472, 2021/07/20 18:25:38.480 PM,1310840738,239138.48,37.42894276,-122.1844061,39.559,0,0,0,-0.09,0,8, SPS (3), Doppler (2), None (),0,0,0,0,0,0,0,2.4,1.7,0.21,0,0,0,-9.856,0.032,-0.827
2.488,0,2.48, 2021/07/20 18:25:38.488 PM,1310840738,239138.488,37.42894276,-122.1844061,39.559,0,0,0,-0.09,0,8, SPS (3), Doppler (2), None (),0,0,0,0,0,0,0,2.03,2.72,-0.65,0,0,0,-9.845,0.173,-0.935
2.5,0,2.492, 2021/07/20 18:25:38.500 PM,1310840739,239138.5,37.42894276,-122.1844061,39.559,0,0,0,-0.09,0,8, SPS (3), Doppler (2), None (),0,0,0,0,0,0,0,1.55,2.25,-1.35,0,0,0,-9.817,0.266,-0.917
2.508,0,2.5, 2021/07/20 18:25:38.508 PM,1310840739,239138.508,37.42894276,-122.1844061,39.559,0,0,0,-0.09,0,8, SPS (3), Doppler (2), None (),0,0,0,0,0,0,0,1.28,2.4,-1.31,0,0,0,-9.831,0.128,-0.84
2.52,0,2.512, 2021/07/20 18:25:38.520 PM,1310840739,239138.52,37.42894276,-122.1844061,39.559,0,0,0,-0.09,0,8, SPS (3), Doppler (2), None (),0,0,0,0,0,0,0,1.39,1.61,-0.96,0,0,0,-9.64,0.086,-0.814
2.528,0,2.52, 2021/07/20 18:25:38.528 PM,1310840739,239138.528,37.42894276,-122.1844061,39.559,0,0,0,-0.09,0,8, SPS (3), Doppler (2), None (),0,0,0,0,0,0,0,1.21,2.26,-0.05,0,0,0,-9.659,0.159,-0.808
2.54,0,2.532, 2021/07/20 18:25:38.540 PM,1310840739,239138.54,37.42894276,-122.1844061,39.559,0,0,0,-0.09,0,8, SPS (3), Doppler (2), None (),0,0,0,0,0,0,0,1.21,2.3,-0.6,0,0,0,-9.743,0.053,-0.772
2.548,0,2.54, 2021/07/20 18:25:38.548 PM,1310840739,239138.548,37.42894276,-122.1844061,39.559,0,0,0,-0.09,0,8, SPS (3), Doppler (2), None (),0,0,0,0,0,0,0,0.72,1.88,-0.27,0,0,0,-9.556,-0.019,-0.591
2.56,0,2.552, 2021/07/20 18:25:38.560 PM,1310840739,239138.56,37.42894276,-122.1844061,39.559,0,0,0,-0.09,0,8, SPS (3), Doppler (2), None (),0,0,0,0,0,0,0,0.13,2,-0.16,0,0,0,-9.746,-0.204,-0.553
2.568,0,2.56, 2021/07/20 18:25:38.568 PM,1310840739,239138.568,37.42893395,-122.1844101,40.104,0,0,0,-0.09,0,9, SPS (3), Doppler (2), None (),0,0,0,0,0,0,0,0.77,1.48,-0.76,0,0,0,-9.795,-0.324,0.075
2.58,0,2.572, 2021/07/20 18:25:38.580 PM,1310840739,239138.58,37.42893395,-122.1844101,40.104,0,0,0,-0.19,0,9, SPS (3), Doppler (2), None (),0,0,0,0,0,0,0,0.25,2.51,-0.56,0,0,0,-9.795,-0.116,-0.726
2.588,0,2.58, 2021/07/20 18:25:38.588 PM,1310840739,239138.588,37.42893395,-122.1844101,40.104,0,0,0,-0.19,0,9, SPS (3), Doppler (2), None (),0,0,0,0,0,0,0,0.27,2.37,-0.54,0,0,0,-9.902,0.308,-0.643
2.6,0,2.592, 2021/07/20 18:25:38.600 PM,1310840739,239138.6,37.42893395,-122.1844101,40.104,0,0,0,-0.19,0,9, SPS (3), Doppler (2), None (),0,0,0,0,0,0,0,0.39,2.14,-0.76,0,0,0,-9.957,0.167,-0.653
2.608,0,2.6, 2021/07/20 18:25:38.608 PM,1310840739,239138.608,37.42893395,-122.1844101,40.104,0,0,0,-0.2,0,9, SPS (3), Doppler (2), None (),0,0,0,0,0,0,0,0.4,1.92,-1.18,0,0,0,-9.949,-0.03,-0.795
2.62,0,2.612, 2021/07/20 18:25:38.620 PM,1310840739,239138.62,37.42893395,-122.1844101,40.104,0,0,0,-0.2,0,9, SPS (3), Doppler (2), None (),0,0,0,0,0,0,0,-0.36,1.35,-0.4,0,0,0,-9.848,0.044,-0.603
2.628,0,2.62, 2021/07/20 18:25:38.628 PM,1310840739,239138.628,37.42893395,-122.1844101,40.104,0,0,0,-0.2,0,9, SPS (3), Doppler (2), None (),0,0,0,0,0,0,0,-0.7,2.64,-0.61,0,0,0,-9.896,0.138,-0.742
2.64,0,2.632, 2021/07/20 18:25:38.640 PM,1310840739,239138.64,37.42893395,-122.1844101,40.104,0,0,0,-0.2,0,9, SPS (3), Doppler (2), None (),0,0,0,0,0,0,0,0.25,1.31,-1.09,0,0,0,-9.798,0.062,-0.596
2.648,0,2.64, 2021/07/20 18:25:38.648 PM,1310840739,239138.648,37.42893395,-122.1844101,40.104,0,0,0,-0.2,0,9, SPS (3), Doppler (2), None (),0,0,0,0,0,0,0,-1.1,1.91,-0.73,0,0,0,-9.767,0,-0.601
2.66,0,2.652, 2021/07/20 18:25:38.660 PM,1310840739,239138.66,37.42893395,-122.1844101,40.104,0,0,0,-0.2,0,9, SPS (3), Doppler (2), None (),0,0,0,0,0,0,0,-1.23,1.66,-0.35,0,0,0,-9.633,0.036,-0.541
2.668,0,2.66, 2021/07/20 18:25:38.668 PM,1310840739,239138.668,37.42893395,-122.1844101,40.104,0,0,0,-0.2,0,9, SPS (3), Doppler (2), None (),0,0,0,0,0,0,0,-1.37,1.52,-0.07,0,0,0,-9.564,-0.085,-0.597
2.68,0,2.672, 2021/07/20 18:25:38.680 PM,1310840739,239138.68,37.42893395,-122.1844101,40.104,0,0,0,-0.2,0,9, SPS (3), Doppler (2), None (),0,0,0,0,0,0,0,-1.68,1.64,-0.55,0,0,0,-9.607,-0.064,-0.479
2.688,0,2.68, 2021/07/20 18:25:38.688 PM,1310840739,239138.688,37.42893395,-122.1844101,40.104,0,0,0,-0.2,0,9, SPS (3), Doppler (2), None (),0,0,0,0,0,0,0,-2.11,2.42,-0.55,0,0,0,-9.661,-0.114,-0.409
2.7,0,2.692, 2021/07/20 18:25:38.700 PM,1310840739,239138.7,37.42893395,-122.1844101,40.104,0,0,0,-0.2,0,9, SPS (3), Doppler (2), None (),0,0,0,0,0,0,0,-1.03,1.61,-0.18,0,0,0,-9.501,0.087,-0.42
2.708,0,2.7, 2021/07/20 18:25:38.708 PM,1310840739,239138.708,37.42893395,-122.1844101,40.104,0,0,0,-0.21,0,9, SPS (3), Doppler (2), None (),0,0,0,0,0,0,0,-2.36,1.45,-0.22,0,0,0,-9.498,0.213,-0.462
2.72,0,2.712, 2021/07/20 18:25:38.720 PM,1310840739,239138.72,37.42893395,-122.1844101,40.104,0,0,0,-0.21,0,9, SPS (3), Doppler (2), None (),0,0,0,0,0,0,0,-1.78,2.82,-0.79,0,0,0,-9.522,0.124,-0.515
2.728,0,2.72, 2021/07/20 18:25:38.728 PM,1310840739,239138.728,37.42893395,-122.1844101,40.104,0,0,0,-0.21,0,9, SPS (3), Doppler (2), None (),0,0,0,0,0,0,0,-1.89,2.13,-0.62,0,0,0,-9.514,0.146,-0.684
2.74,0,2.732, 2021/07/20 18:25:38.740 PM,1310840739,239138.74,37.42893395,-122.1844101,40.104,0,0,0,-0.21,0,9, SPS (3), Doppler (2), None (),0,0,0,0,0,0,0,-3.06,2.6,-0.67,0,0,0,-9.507,0.17,-0.586
2.748,0,2.74, 2021/07/20 18:25:38.748 PM,1310840739,239138.748,37.42893395,-122.1844101,40.104,0,0,0,-0.21,0,9, SPS (3), Doppler (2), None (),0,0,0,0,0,0,0,-2.37,2.59,-0.25,0,0,0,-9.498,0.128,-0.586
2.76,0,2.752, 2021/07/20 18:25:38.760 PM,1310840739,239138.76,37.42893395,-122.1844101,40.104,0,0,0,-0.21,0,9, SPS (3), Doppler (2), None (),0,0,0,0,0,0,0,-2.33,1.95,-0.35,0,0,0,-9.673,0.231,-0.56
2.768,0,2.76, 2021/07/20 18:25:38.768 PM,1310840739,239138.768,37.42893395,-122.1844101,40.104,0,0,0,-0.21,0,9, SPS (3), Doppler (2), None (),0,0,0,0,0,0,0,-2.44,2.41,-0.92,0,0,0,-9.689,0.309,-0.573
2.78,0,2.772, 2021/07/20 18:25:38.780 PM,1310840739,239138.78,37.42893395,-122.1844101,40.104,0,0,0,-0.21,0,9, SPS (3), Doppler (2), None (),0,0,0,0,0,0,0,-3.73,3.07,-0.63,0,0,0,-9.932,0.372,-0.543
2.788,0,2.78, 2021/07/20 18:25:38.788 PM,1310840739,239138.788,37.42893395,-122.1844101,40.104,0,0,0,-0.21,0,9, SPS (3), Doppler (2), None (),0,0,0,0,0,0,0,-3.27,2.2,-1.25,0,0,0,-10.017,0.121,-0.631
2.8,0,2.792, 2021/07/20 18:25:38.800 PM,1310840739,239138.8,37.42893395,-122.1844101,40.104,0,0,0,-0.21,0,9, SPS (3), Doppler (2), None (),0,0,0,0,0,0,0,-3.92,2.27,-0.53,0,0,0,-9.959,-0.013,-0.519
2.808,0,2.8, 2021/07/20 18:25:38.808 PM,1310840739,239138.808,37.42893395,-122.1844101,40.104,0,0,0,-0.23,0,9, SPS (3), Doppler (2), None (),0,0,0,0,0,0,0,-3.88,1.78,-0.7,0,0,0,-9.954,0.019,-0.632
2.82,0,2.812, 2021/07/20 18:25:38.820 PM,1310840739,239138.82,37.42893395,-122.1844101,40.104,0,0,0,-0.23,0,9, SPS (3), Doppler (2), None (),0,0,0,0,0,0,0,-4.85,1.69,-0.53,0,0,0,-10.29,0.22,-0.602
2.828,0,2.82, 2021/07/20 18:25:38.828 PM,1310840739,239138.828,37.42893395,-122.1844101,40.104,0,0,0,-0.23,0,9, SPS (3), Doppler (2), None (),0,0,0,0,0,0,0,-4.15,1.49,-1.15,0,0,0,-10.01,0.281,-0.974
2.84,0,2.832, 2021/07/20 18:25:38.840 PM,1310840739,239138.84,37.42893395,-122.1844101,40.104,0,0,0,-0.23,0,9, SPS (3), Doppler (2), None (),0,0,0,0,0,0,0,-4.54,2.24,0.33,0,0,0,-10.066,0.009,-0.803
2.848,0,2.84, 2021/07/20 18:25:38.848 PM,1310840739,239138.848,37.42893395,-122.1844101,40.104,0,0,0,-0.23,0,9, SPS (3), Doppler (2), None (),0,0,0,0,0,0,0,-6.08,1.09,-0.26,0,0,0,-10.213,0.007,-0.466
2.86,0,2.852, 2021/07/20 18:25:38.860 PM,1310840739,239138.86,37.42893395,-122.1844101,40.104,0,0,0,-0.23,0,9, SPS (3), Doppler (2), None (),0,0,0,0,0,0,0,-5.13,0.92,-0.63,0,0,0,-10.082,0.067,-0.648
2.868,0,2.86, 2021/07/20 18:25:38.868 PM,1310840739,239138.868,37.42893395,-122.1844101,40.104,0,0,0,-0.23,0,9, SPS (3), Doppler (2), None (),0,0,0,0,0,0,0,-5.37,0.53,-0.49,0,0,0,-10.022,0.135,-0.564
2.88,0,2.872, 2021/07/20 18:25:38.880 PM,1310840739,239138.88,37.42893395,-122.1844101,40.104,0,0,0,-0.23,0,9, SPS (3), Doppler (2), None (),0,0,0,0,0,0,0,-5.82,0.92,-1.53,0,0,0,-9.922,0.214,-0.435
2.888,0,2.88, 2021/07/20 18:25:38.888 PM,1310840739,239138.888,37.42893395,-122.1844101,40.104,0,0,0,-0.23,0,9, SPS (3), Doppler (2), None (),0,0,0,0,0,0,0,-6.47,0.57,-2.01,0,0,0,-10.013,0.419,-0.469
2.9,0,2.892, 2021/07/20 18:25:38.900 PM,1310840739,239138.9,37.42893395,-122.1844101,40.104,0,0,0,-0.23,0,9, SPS (3), Doppler (2), None (),0,0,0,0,0,0,0,-6.52,0.56,-1.79,0,0,0,-9.584,0.028,-0.293
2.908,0,2.9, 2021/07/20 18:25:38.908 PM,1310840739,239138.908,37.42893395,-122.1844101,40.104,0,0,0,0.06,0,9, SPS (3), Doppler (2), None (),0,0,0,0,0,0,0,-6.73,0.78,-2.33,0,0,0,-9.708,0.127,-0.458
2.92,0,2.912, 2021/07/20 18:25:38.920 PM,1310840739,239138.92,37.42893395,-122.1844101,40.104,0,0,0,0.06,0,9, SPS (3), Doppler (2), None (),0,0,0,0,0,0,0,-6.94,0.78,-1.75,0,0,0,-9.519,0.248,-0.5
2.928,0,2.92, 2021/07/20 18:25:38.928 PM,1310840739,239138.928,37.42893395,-122.1844101,40.104,0,0,0,0.06,0,9, SPS (3), Doppler (2), None (),0,0,0,0,0,0,0,-7.04,0.48,-0.56,0,0,0,-9.274,0.054,-0.231
2.94,0,2.932, 2021/07/20 18:25:38.940 PM,1310840739,239138.94,37.42893395,-122.1844101,40.104,0,0,0,0.06,0,9, SPS (3), Doppler (2), None (),0,0,0,0,0,0,0,-7.78,1.04,-1,0,0,0,-9.248,0.532,-0.331
2.948,0,2.94, 2021/07/20 18:25:38.948 PM,1310840739,239138.948,37.42893395,-122.1844101,40.104,0,0,0,0.06,0,9, SPS (3), Doppler (2), None (),0,0,0,0,0,0,0,-7.94,1.14,-1.68,0,0,0,-9.307,0.18,-0.265
2.96,0,2.952, 2021/07/20 18:25:38.960 PM,1310840739,239138.96,37.42893395,-122.1844101,40.104,0,0,0,0.06,0,9, SPS (3), Doppler (2), None (),0,0,0,0,0,0,0,-9.06,0.89,-0.53,0,0,0,-9.31,0.304,-0.011
2.968,0,2.96, 2021/07/20 18:25:38.968 PM,1310840739,239138.968,37.42893395,-122.1844101,40.104,0,0,0,0.06,0,9, SPS (3), Doppler (2), None (),0,0,0,0,0,0,0,-8.7,1.96,0.14,0,0,0,-9.198,0.043,-0.558
2.98,0,2.972, 2021/07/20 18:25:38.980 PM,1310840739,239138.98,37.42893395,-122.1844101,40.104,0,0,0,0.06,0,9, SPS (3), Doppler (2), None (),0,0,0,0,0,0,0,-9.5,2.45,-0.2,0,0,0,-9.658,0.181,-0.452
2.988,0,2.98, 2021/07/20 18:25:38.988 PM,1310840739,239138.988,37.42893395,-122.1844101,40.104,0,0,0,0.06,0,9, SPS (3), Doppler (2), None (),0,0,0,0,0,0,0,-9.51,2.13,-0.31,0,0,0,-9.638,0.104,-0.463
