%time,field.header.seq,field.header.stamp,field.header.frame_id,field.status.status,field.status.service,field.latitude,field.longitude,field.altitude,field.position_covariance0,field.position_covariance1,field.position_covariance2,field.position_covariance3,field.position_covariance4,field.position_covariance5,field.position_covariance6,field.position_covariance7,field.position_covariance8,field.position_covariance_type
1626822612409701939,8349,1626822612409436077,gps_base,0,1,37.4265636,-122.1845141,6.8500000000000005,0.3192249999999999,0.0,0.0,0.0,0.3192249999999999,0.0,0.0,0.0,0.804609,2
1626822612637412112,8350,1626822612637256826,gps_base,0,1,37.426563699999996,-122.1845139,6.835,0.3203559999999999,0.0,0.0,0.0,0.3203559999999999,0.0,0.0,0.0,0.806404,2
1626822612885108545,8351,1626822612884975310,gps_base,0,1,37.4265638,-122.18451359999999,6.821,0.32148899999999997,0.0,0.0,0.0,0.32148899999999997,0.0,0.0,0.0,0.8082010000000001,2
1626822613129326565,8352,1626822613129128466,gps_base,0,1,37.4265639,-122.1845134,6.811,0.32262399999999997,0.0,0.0,0.0,0.32262399999999997,0.0,0.0,0.0,0.811801,2
1626822613381789482,8353,1626822613381659338,gps_base,0,1,37.426564,-122.18451309999999,6.793,0.32262399999999997,0.0,0.0,0.0,0.32262399999999997,0.0,0.0,0.0,0.813604,2
1626822613642122480,8354,1626822613641964045,gps_base,0,1,37.4265641,-122.1845129,6.773000000000001,0.32376099999999997,0.0,0.0,0.0,0.32376099999999997,0.0,0.0,0.0,0.813604,2
1626822613880958088,8355,1626822613880800052,gps_base,0,1,37.4265642,-122.18451259999999,6.748,0.32489999999999997,0.0,0.0,0.0,0.32489999999999997,0.0,0.0,0.0,0.813604,2
1626822614136268426,8356,1626822614136063207,gps_base,0,1,37.426564299999995,-122.18451239999999,6.729,0.32489999999999997,0.0,0.0,0.0,0.32489999999999997,0.0,0.0,0.0,0.815409,2
1626822614378076449,8357,1626822614377914019,gps_base,0,1,37.426564299999995,-122.18451209999999,6.71,0.32604099999999997,0.0,0.0,0.0,0.32604099999999997,0.0,0.0,0.0,0.817216,2
1626822614632410819,8358,1626822614632044994,gps_base,0,1,37.4265644,-122.1845118,6.69,0.3271839999999999,0.0,0.0,0.0,0.3271839999999999,0.0,0.0,0.0,0.819025,2
1626822614876157263,8359,1626822614875998727,gps_base,0,1,37.4265645,-122.1845115,6.659,0.3283289999999999,0.0,0.0,0.0,0.3283289999999999,0.0,0.0,0.0,0.820836,2
1626822615129223034,8360,1626822615129030123,gps_base,0,1,37.4265646,-122.18451119999999,6.636,0.32947599999999994,0.0,0.0,0.0,0.32947599999999994,0.0,0.0,0.0,0.8226490000000001,2
1626822615377115543,8361,1626822615376946258,gps_base,0,1,37.4265647,-122.18451089999999,6.611,0.32947599999999994,0.0,0.0,0.0,0.32947599999999994,0.0,0.0,0.0,0.8244640000000001,2
1626822615634389187,8362,1626822615634175055,gps_base,0,1,37.4265647,-122.18451069999999,6.586,0.33062499999999995,0.0,0.0,0.0,0.33062499999999995,0.0,0.0,0.0,0.8281000000000001,2
1626822615871112759,8363,1626822615870972049,gps_base,0,1,37.4265648,-122.1845104,6.564,0.33177599999999996,0.0,0.0,0.0,0.33177599999999996,0.0,0.0,0.0,0.829921,2
1626822616129065442,8364,1626822616128956625,gps_base,0,1,37.426564899999995,-122.18451019999999,6.5440000000000005,0.332929,0.0,0.0,0.0,0.332929,0.0,0.0,0.0,0.831744,2
1626822616377186582,8365,1626822616377084127,gps_base,0,1,37.426565,-122.1845099,6.5200000000000005,0.33408399999999994,0.0,0.0,0.0,0.33408399999999994,0.0,0.0,0.0,0.8335690000000001,2
1626822616632837771,8366,1626822616632624801,gps_base,0,1,37.426565,-122.18450969999999,6.497,0.33408399999999994,0.0,0.0,0.0,0.33408399999999994,0.0,0.0,0.0,0.835396,2
1626822616876722497,8367,1626822616876572562,gps_base,0,1,37.426565,-122.18450949999999,6.478,0.33524099999999996,0.0,0.0,0.0,0.33524099999999996,0.0,0.0,0.0,0.8372250000000001,2
1626822617128978022,8368,1626822617128746535,gps_base,0,1,37.4265651,-122.18450929999999,6.462,0.3364,0.0,0.0,0.0,0.3364,0.0,0.0,0.0,0.839056,2
1626822617377001549,8369,1626822617376791035,gps_base,0,1,37.4265651,-122.1845092,6.433,0.3364,0.0,0.0,0.0,0.3364,0.0,0.0,0.0,0.839056,2
1626822617638971507,8370,1626822617638880341,gps_base,0,1,37.4265652,-122.1845091,6.4030000000000005,0.33756099999999994,0.0,0.0,0.0,0.33756099999999994,0.0,0.0,0.0,0.839056,2
1626822617878139594,8371,1626822617877983830,gps_base,0,1,37.4265653,-122.1845089,6.37,0.33756099999999994,0.0,0.0,0.0,0.33756099999999994,0.0,0.0,0.0,0.839056,2
1626822618130002308,8372,1626822618129906423,gps_base,0,1,37.4265654,-122.1845087,6.339,0.33872399999999997,0.0,0.0,0.0,0.33872399999999997,0.0,0.0,0.0,0.839056,2
1626822618389422233,8373,1626822618389281258,gps_base,0,1,37.4265657,-122.18450849999999,6.3100000000000005,0.33756099999999994,0.0,0.0,0.0,0.33756099999999994,0.0,0.0,0.0,0.839056,2
1626822618638630384,8374,1626822618638527158,gps_base,0,1,37.4265659,-122.1845082,6.29,0.33756099999999994,0.0,0.0,0.0,0.33756099999999994,0.0,0.0,0.0,0.8408890000000001,2
1626822618878889023,8375,1626822618878734871,gps_base,0,1,37.426566199999996,-122.1845079,6.277,0.3364,0.0,0.0,0.0,0.3364,0.0,0.0,0.0,0.842724,2
1626822619131308908,8376,1626822619131114158,gps_base,0,1,37.4265666,-122.18450759999999,6.267,0.33524099999999996,0.0,0.0,0.0,0.33524099999999996,0.0,0.0,0.0,0.8445610000000001,2
1626822619383095932,8377,1626822619383027363,gps_base,0,1,37.426567,-122.18450729999999,6.26,0.33408399999999994,0.0,0.0,0.0,0.33408399999999994,0.0,0.0,0.0,0.8464,2
1626822619639990958,8378,1626822619639869113,gps_base,0,1,37.426567399999996,-122.184507,6.251,0.332929,0.0,0.0,0.0,0.332929,0.0,0.0,0.0,0.8464,2
1626822619881306791,8379,1626822619881237858,gps_base,0,1,37.426567899999995,-122.1845067,6.244,0.33177599999999996,0.0,0.0,0.0,0.33177599999999996,0.0,0.0,0.0,0.848241,2
1626822620132250466,8380,1626822620132158433,gps_base,0,1,37.4265683,-122.18450639999999,6.223,0.332929,0.0,0.0,0.0,0.332929,0.0,0.0,0.0,0.8500840000000001,2
1626822620388131364,8381,1626822620388029941,gps_base,0,1,37.4265688,-122.184506,6.198,0.33408399999999994,0.0,0.0,0.0,0.33408399999999994,0.0,0.0,0.0,0.851929,2
1626822620637507251,8382,1626822620637369780,gps_base,0,1,37.4265694,-122.18450569999999,6.187,0.33524099999999996,0.0,0.0,0.0,0.33524099999999996,0.0,0.0,0.0,0.8556250000000001,2
1626822620880275870,8383,1626822620880130388,gps_base,0,1,37.42657,-122.18450539999999,6.1770000000000005,0.3364,0.0,0.0,0.0,0.3364,0.0,0.0,0.0,0.8574760000000001,2
1626822621132221554,8384,1626822621132107343,gps_base,0,1,37.4265708,-122.184505,6.1610000000000005,0.3364,0.0,0.0,0.0,0.3364,0.0,0.0,0.0,0.8574760000000001,2
1626822621390336130,8385,1626822621390158342,gps_base,0,1,37.4265715,-122.18450469999999,6.158,0.33756099999999994,0.0,0.0,0.0,0.33756099999999994,0.0,0.0,0.0,0.8611840000000001,2
1626822621640511455,8386,1626822621640150446,gps_base,0,1,37.4265723,-122.1845044,6.143,0.33872399999999997,0.0,0.0,0.0,0.33872399999999997,0.0,0.0,0.0,0.8649000000000001,2
1626822621885998389,8387,1626822621885794150,gps_base,0,1,37.4265729,-122.1845041,6.127,0.34105599999999997,0.0,0.0,0.0,0.34105599999999997,0.0,0.0,0.0,0.8686240000000001,2
1626822622136934061,8388,1626822622136750451,gps_base,0,1,37.4265738,-122.1845037,6.118,0.34222499999999995,0.0,0.0,0.0,0.34222499999999995,0.0,0.0,0.0,0.8723560000000001,2
1626822622389829878,8389,1626822622389656218,gps_base,0,1,37.4265744,-122.18450329999999,6.097,0.343396,0.0,0.0,0.0,0.343396,0.0,0.0,0.0,0.8760960000000001,2
1626822622644835515,8390,1626822622644513221,gps_base,0,1,37.426575299999996,-122.1845029,6.093,0.34456899999999996,0.0,0.0,0.0,0.34456899999999996,0.0,0.0,0.0,0.8798439999999998,2
1626822622884065552,8391,1626822622883847905,gps_base,0,1,37.4265762,-122.1845025,6.087,0.34574399999999994,0.0,0.0,0.0,0.34574399999999994,0.0,0.0,0.0,0.8835999999999999,2
1626822623136167379,8392,1626822623135996415,gps_base,0,1,37.4265768,-122.18450209999999,6.072,0.34809999999999997,0.0,0.0,0.0,0.34809999999999997,0.0,0.0,0.0,0.8873639999999999,2
1626822623386183416,8393,1626822623386038814,gps_base,0,1,37.426577699999996,-122.1845017,6.053,0.35046399999999994,0.0,0.0,0.0,0.35046399999999994,0.0,0.0,0.0,0.889249,2
1626822623649675792,8394,1626822623649554817,gps_base,0,1,37.4265784,-122.18450139999999,6.032,0.351649,0.0,0.0,0.0,0.351649,0.0,0.0,0.0,0.893025,2
1626822623883001194,8395,1626822623882823699,gps_base,0,1,37.4265792,-122.18450089999999,6.025,0.354025,0.0,0.0,0.0,0.354025,0.0,0.0,0.0,0.8968089999999999,2
1626822624138234994,8396,1626822624138052371,gps_base,0,1,37.426580099999995,-122.1845005,5.998,0.355216,0.0,0.0,0.0,0.355216,0.0,0.0,0.0,0.898704,2
1626822624400085658,8397,1626822624399874275,gps_base,0,1,37.4265809,-122.1845001,5.988,0.357604,0.0,0.0,0.0,0.357604,0.0,0.0,0.0,0.9006009999999999,2
1626822624637604822,8398,1626822624637436090,gps_base,0,1,37.426581899999995,-122.1844996,5.989,0.36,0.0,0.0,0.0,0.36,0.0,0.0,0.0,0.9044009999999999,2
1626822624880503848,8399,1626822624880360609,gps_base,0,1,37.426583,-122.18449899999999,5.984,0.36240399999999995,0.0,0.0,0.0,0.36240399999999995,0.0,0.0,0.0,0.9082089999999999,2
1626822625133512478,8400,1626822625133427598,gps_base,0,1,37.4265843,-122.1844982,5.989,0.36360899999999996,0.0,0.0,0.0,0.36360899999999996,0.0,0.0,0.0,0.912025,2
1626822625382168608,8401,1626822625382057483,gps_base,0,1,37.4265859,-122.1844974,5.984,0.364816,0.0,0.0,0.0,0.364816,0.0,0.0,0.0,0.9158489999999999,2
1626822625638937558,8402,1626822625638775053,gps_base,0,1,37.4265871,-122.1844969,5.961,0.367236,0.0,0.0,0.0,0.367236,0.0,0.0,0.0,0.919681,2
1626822625882532267,8403,1626822625882448040,gps_base,0,1,37.4265885,-122.1844964,5.937,0.36844899999999997,0.0,0.0,0.0,0.36844899999999997,0.0,0.0,0.0,0.9216,2
1626822626132623965,8404,1626822626132252856,gps_base,0,1,37.426589899999996,-122.18449559999999,5.932,0.37088099999999996,0.0,0.0,0.0,0.37088099999999996,0.0,0.0,0.0,0.9254439999999999,2
1626822626383788902,8405,1626822626383660892,gps_base,0,1,37.426591699999996,-122.18449489999999,5.877,0.3721,0.0,0.0,0.0,0.3721,0.0,0.0,0.0,0.9254439999999999,2
1626822626636993480,8406,1626822626636834629,gps_base,0,1,37.4265939,-122.18449389999999,5.8340000000000005,0.37332099999999996,0.0,0.0,0.0,0.37332099999999996,0.0,0.0,0.0,0.9273689999999999,2
1626822626881914108,8407,1626822626881721772,gps_base,0,1,37.426595899999995,-122.1844931,5.801,0.37576899999999996,0.0,0.0,0.0,0.37576899999999996,0.0,0.0,0.0,0.9292959999999999,2
1626822627186068819,8408,1626822627185919255,gps_base,0,1,37.4265976,-122.18449299999999,5.774,0.378225,0.0,0.0,0.0,0.378225,0.0,0.0,0.0,0.933156,2
1626822627463383111,8409,1626822627463062837,gps_base,0,1,37.426599599999996,-122.1844931,5.756,0.380689,0.0,0.0,0.0,0.380689,0.0,0.0,0.0,0.937024,2
1626822627702181158,8410,1626822627701906032,gps_base,0,1,37.4266017,-122.1844928,5.703,0.383161,0.0,0.0,0.0,0.383161,0.0,0.0,0.0,0.937024,2
1626822628063286758,8411,1626822628063154715,gps_base,0,1,37.4266025,-122.18449269999999,5.646,0.386884,0.0,0.0,0.0,0.386884,0.0,0.0,0.0,0.9409,2
1626822628592306359,8412,1626822628592177925,gps_base,0,1,37.426603799999995,-122.1844912,5.547,0.393129,0.0,0.0,0.0,0.393129,0.0,0.0,0.0,0.948676,2
1626822628962414079,8413,1626822628962329374,gps_base,0,1,37.4266055,-122.18448939999999,5.4830000000000005,0.399424,0.0,0.0,0.0,0.399424,0.0,0.0,0.0,0.9603999999999999,2
1626822629263448821,8414,1626822629263329949,gps_base,0,1,37.4266068,-122.18448769999999,5.392,0.400689,0.0,0.0,0.0,0.400689,0.0,0.0,0.0,0.962361,2
1626822629841722937,8415,1626822629841515791,gps_base,0,1,37.4266082,-122.1844871,5.321,0.408321,0.0,0.0,0.0,0.408321,0.0,0.0,0.0,0.972196,2
1626822630387907174,8416,1626822630387608015,gps_base,0,1,37.426609,-122.1844861,5.242,0.41473600000000005,0.0,0.0,0.0,0.41473600000000005,0.0,0.0,0.0,0.9840639999999999,2
1626822630879115920,8417,1626822630878938066,gps_base,0,1,37.4266098,-122.18448479999999,5.159,0.42250000000000004,0.0,0.0,0.0,0.42250000000000004,0.0,0.0,0.0,0.994009,2
1626822631364928727,8418,1626822631364760742,gps_base,0,1,37.4266106,-122.1844835,5.025,0.42902500000000005,0.0,0.0,0.0,0.42902500000000005,0.0,0.0,0.0,1.004004,2
1626822631753324175,8419,1626822631752979721,gps_base,0,1,37.426612,-122.1844821,4.8100000000000005,0.43560000000000004,0.0,0.0,0.0,0.43560000000000004,0.0,0.0,0.0,1.012036,2
1626822632251032242,8420,1626822632250844521,gps_base,0,1,37.4266128,-122.1844806,4.651,0.44222500000000003,0.0,0.0,0.0,0.44222500000000003,0.0,0.0,0.0,1.0221209999999998,2
1626822632751256058,8421,1626822632751025359,gps_base,0,1,37.4266138,-122.1844795,4.515,0.45024100000000006,0.0,0.0,0.0,0.45024100000000006,0.0,0.0,0.0,1.032256,2
1626822633254479159,8422,1626822633254360496,gps_base,0,1,37.4266147,-122.1844782,4.347,0.45697600000000005,0.0,0.0,0.0,0.45697600000000005,0.0,0.0,0.0,1.0424409999999997,2
1626822633754727209,8423,1626822633754589187,gps_base,0,1,37.4266157,-122.18447719999999,4.2010000000000005,0.4651240000000001,0.0,0.0,0.0,0.4651240000000001,0.0,0.0,0.0,1.052676,2
1626822634246581266,8424,1626822634246436221,gps_base,0,1,37.4266168,-122.18447619999999,4.047,0.47334399999999993,0.0,0.0,0.0,0.47334399999999993,0.0,0.0,0.0,1.0629609999999998,2
1626822634756904127,8425,1626822634756791868,gps_base,0,1,37.4266177,-122.1844747,3.89,0.48163599999999995,0.0,0.0,0.0,0.48163599999999995,0.0,0.0,0.0,1.0753689999999998,2
1626822635186854028,8426,1626822635186679855,gps_base,0,1,37.4266186,-122.18447289999999,3.704,0.48860099999999995,0.0,0.0,0.0,0.48860099999999995,0.0,0.0,0.0,1.0857640000000002,2
1626822635443836019,8427,1626822635443731225,gps_base,0,1,37.426619099999996,-122.1844715,3.5,0.4914009999999999,0.0,0.0,0.0,0.4914009999999999,0.0,0.0,0.0,1.089936,2
1626822635692640302,8428,1626822635692506472,gps_base,0,1,37.426619599999995,-122.1844701,3.297,0.49420899999999995,0.0,0.0,0.0,0.49420899999999995,0.0,0.0,0.0,1.0920249999999998,2
1626822635934512028,8429,1626822635934348172,gps_base,0,1,37.426620199999995,-122.18446879999999,3.128,0.49702499999999994,0.0,0.0,0.0,0.49702499999999994,0.0,0.0,0.0,1.0962089999999998,2
1626822636185352627,8430,1626822636185203307,gps_base,0,1,37.426620799999995,-122.1844673,2.9210000000000003,0.5505639999999999,0.0,0.0,0.0,0.5505639999999999,0.0,0.0,0.0,1.2122009999999999,2
1626822636453219835,8431,1626822636453012367,gps_base,0,1,37.4266216,-122.184466,2.704,0.597529,0.0,0.0,0.0,0.597529,0.0,0.0,0.0,1.3133159999999997,2
1626822636696214878,8432,1626822636696009570,gps_base,0,1,37.4266224,-122.18446519999999,2.475,0.6115240000000001,0.0,0.0,0.0,0.6115240000000001,0.0,0.0,0.0,1.3363359999999997,2
1626822636938629294,8433,1626822636938412947,gps_base,0,1,37.4266231,-122.1844642,2.287,0.6193690000000001,0.0,0.0,0.0,0.6193690000000001,0.0,0.0,0.0,1.3502439999999998,2
1626822637187384395,8434,1626822637187220877,gps_base,0,1,37.426623899999996,-122.1844632,2.062,0.6528640000000001,0.0,0.0,0.0,0.6528640000000001,0.0,0.0,0.0,1.4161,2
1626822637456271589,8435,1626822637456045086,gps_base,0,1,37.4266248,-122.1844624,1.848,0.6789759999999999,0.0,0.0,0.0,0.6789759999999999,0.0,0.0,0.0,1.4665210000000002,2
1626822637701374660,8436,1626822637701176225,gps_base,0,1,37.4266255,-122.1844613,1.6640000000000001,0.690561,0.0,0.0,0.0,0.690561,0.0,0.0,0.0,1.4908410000000003,2
1626822637940509034,8437,1626822637940297635,gps_base,0,1,37.4266261,-122.1844603,1.489,0.695556,0.0,0.0,0.0,0.695556,0.0,0.0,0.0,1.498176,2
1626822638188882444,8438,1626822638188739370,gps_base,0,1,37.4266268,-122.1844594,1.35,0.697225,0.0,0.0,0.0,0.697225,0.0,0.0,0.0,1.4932839999999998,2
1626822638443871968,8439,1626822638443563465,gps_base,0,1,37.426627599999996,-122.18445879999999,1.224,0.692224,0.0,0.0,0.0,0.692224,0.0,0.0,0.0,1.478656,2
1626822638698742773,8440,1626822638698618397,gps_base,0,1,37.4266285,-122.18445829999999,1.061,0.695556,0.0,0.0,0.0,0.695556,0.0,0.0,0.0,1.478656,2
1626822638935601147,8441,1626822638935500948,gps_base,0,1,37.426629399999996,-122.18445759999999,0.79,0.7140249999999999,0.0,0.0,0.0,0.7140249999999999,0.0,0.0,0.0,1.507984,2
1626822639186731848,8442,1626822639186608796,gps_base,0,1,37.4266301,-122.1844565,0.554,0.744769,0.0,0.0,0.0,0.744769,0.0,0.0,0.0,1.5650009999999996,2
1626822639438841438,8443,1626822639438701577,gps_base,0,1,37.4266307,-122.1844557,0.386,0.7327359999999999,0.0,0.0,0.0,0.7327359999999999,0.0,0.0,0.0,1.5351210000000002,2
1626822639695880398,8444,1626822639695682005,gps_base,0,1,37.4266314,-122.1844545,0.181,0.7569,0.0,0.0,0.0,0.7569,0.0,0.0,0.0,1.5800489999999998,2
1626822639933953176,8445,1626822639933760989,gps_base,0,1,37.4266321,-122.18445369999999,-0.017,0.776161,0.0,0.0,0.0,0.776161,0.0,0.0,0.0,1.6129,2
1626822640188926257,8446,1626822640188738833,gps_base,0,1,37.4266327,-122.1844526,-0.266,0.804609,0.0,0.0,0.0,0.804609,0.0,0.0,0.0,1.6666809999999999,2
1626822640441587870,8447,1626822640441235222,gps_base,0,1,37.4266332,-122.184451,-0.47800000000000004,0.842724,0.0,0.0,0.0,0.842724,0.0,0.0,0.0,1.7424000000000002,2
1626822640697490187,8448,1626822640697117979,gps_base,0,1,37.4266337,-122.18444939999999,-0.6960000000000001,0.8854809999999999,0.0,0.0,0.0,0.8854809999999999,0.0,0.0,0.0,1.8279040000000002,2
1626822640936279099,8449,1626822640936162923,gps_base,0,1,37.4266341,-122.18444799999999,-0.872,0.9216,0.0,0.0,0.0,0.9216,0.0,0.0,0.0,1.8988839999999998,2
1626822641187216784,8450,1626822641187113043,gps_base,0,1,37.426634899999996,-122.1844464,-1.108,1.012036,0.0,0.0,0.0,1.012036,0.0,0.0,0.0,2.082249,2
1626822641443857615,8451,1626822641443445568,gps_base,0,1,37.426635499999996,-122.184445,-1.32,1.0302249999999997,0.0,0.0,0.0,1.0302249999999997,0.0,0.0,0.0,2.1170250000000004,2
1626822641694059452,8452,1626822641693942267,gps_base,0,1,37.4266359,-122.18444369999999,-1.478,1.0302249999999997,0.0,0.0,0.0,1.0302249999999997,0.0,0.0,0.0,2.111209,2
1626822641925646037,8453,1626822641925233592,gps_base,0,1,37.4266362,-122.1844424,-1.6360000000000001,1.028196,0.0,0.0,0.0,1.028196,0.0,0.0,0.0,2.1025,2
1626822642179503686,8454,1626822642179396940,gps_base,0,1,37.426636699999996,-122.18444149999999,-1.796,1.0020009999999997,0.0,0.0,0.0,1.0020009999999997,0.0,0.0,0.0,2.0448999999999997,2
1626822642454751494,8455,1626822642454636188,gps_base,0,1,37.4266372,-122.1844407,-1.961,0.9801,0.0,0.0,0.0,0.9801,0.0,0.0,0.0,1.9937439999999997,2
1626822642697599650,8456,1626822642697427754,gps_base,0,1,37.4266378,-122.18443979999999,-2.146,0.9801,0.0,0.0,0.0,0.9801,0.0,0.0,0.0,1.9824639999999998,2
1626822642948679153,8457,1626822642948581516,gps_base,0,1,37.4266383,-122.1844387,-2.294,0.968256,0.0,0.0,0.0,0.968256,0.0,0.0,0.0,1.9544039999999998,2
1626822643195787841,8458,1626822643195604798,gps_base,0,1,37.4266388,-122.1844376,-2.447,0.952576,0.0,0.0,0.0,0.952576,0.0,0.0,0.0,1.918225,2
1626822643438922680,8459,1626822643438724044,gps_base,0,1,37.4266394,-122.18443669999999,-2.559,0.9389609999999999,0.0,0.0,0.0,0.9389609999999999,0.0,0.0,0.0,1.885129,2
1626822643700072543,8460,1626822643699764338,gps_base,0,1,37.426639699999996,-122.18443549999999,-2.645,0.937024,0.0,0.0,0.0,0.937024,0.0,0.0,0.0,1.879641,2
1626822643940100801,8461,1626822643939957010,gps_base,0,1,37.4266401,-122.18443429999999,-2.734,0.944784,0.0,0.0,0.0,0.944784,0.0,0.0,0.0,1.8933759999999997,2
1626822644176147118,8462,1626822644176044384,gps_base,0,1,37.4266405,-122.18443309999999,-2.843,0.9801,0.0,0.0,0.0,0.9801,0.0,0.0,0.0,1.957201,2
1626822644389012616,8463,1626822644388745430,gps_base,0,1,37.427446599999996,-122.1839289,-3.466,458.47374399999995,0.0,0.0,0.0,458.47374399999995,0.0,0.0,0.0,4639.925689000001,2
1626822644646528208,8464,1626822644646348074,gps_base,0,1,37.427450199999996,-122.18391709999999,0.402,146.57944899999998,0.0,0.0,0.0,146.57944899999998,0.0,0.0,0.0,1229.764624,2
1626822644890272322,8465,1626822644890120189,gps_base,0,1,37.4274596,-122.1839016,4.837,72.522256,0.0,0.0,0.0,72.522256,0.0,0.0,0.0,598.4872959999999,2
1626822645203359695,8466,1626822645203020473,gps_base,0,1,37.4274625,-122.183899,4.862,55.562115999999996,0.0,0.0,0.0,55.562115999999996,0.0,0.0,0.0,437.68824099999995,2
1626822645510230473,8467,1626822645510066827,gps_base,0,1,37.4274651,-122.18389289999999,5.5120000000000005,44.36892099999999,0.0,0.0,0.0,44.36892099999999,0.0,0.0,0.0,340.919296,2
1626822645955530806,8468,1626822645955229973,gps_base,0,1,37.4274736,-122.1838825,7.5360000000000005,35.772361,0.0,0.0,0.0,35.772361,0.0,0.0,0.0,233.08128899999997,2
1626822646268886264,8469,1626822646268545648,gps_base,0,1,37.4274765,-122.18387919999999,7.602,32.501400999999994,0.0,0.0,0.0,32.501400999999994,0.0,0.0,0.0,194.128489,2
1626822646651745401,8470,1626822646651602880,gps_base,0,1,37.4274807,-122.18387589999999,8.295,29.844369,0.0,0.0,0.0,29.844369,0.0,0.0,0.0,167.573025,2
1626822646894581053,8471,1626822646894380014,gps_base,0,1,37.427484199999995,-122.18387369999999,8.787,27.164944,0.0,0.0,0.0,27.164944,0.0,0.0,0.0,135.93228100000002,2
1626822647142546626,8472,1626822647142292415,gps_base,0,1,37.4274963,-122.1838672,10.381,24.542115999999996,0.0,0.0,0.0,24.542115999999996,0.0,0.0,0.0,121.39632400000002,2
1626822647394897565,8473,1626822647394718715,gps_base,0,1,37.4275053,-122.18386059999999,10.979000000000001,22.8484,0.0,0.0,0.0,22.8484,0.0,0.0,0.0,111.36580900000001,2
1626822647650607359,8474,1626822647650456542,gps_base,0,1,37.4275139,-122.18385549999999,11.31,21.242881,0.0,0.0,0.0,21.242881,0.0,0.0,0.0,100.020001,2
1626822647888180652,8475,1626822647888046034,gps_base,0,1,37.4275217,-122.18385049999999,11.495000000000001,19.963024,0.0,0.0,0.0,19.963024,0.0,0.0,0.0,91.06884899999999,2
1626822648131081715,8476,1626822648130924265,gps_base,0,1,37.4275265,-122.1838454,11.527000000000001,19.131876,0.0,0.0,0.0,19.131876,0.0,0.0,0.0,85.803169,2
1626822648387712947,8477,1626822648387605326,gps_base,0,1,37.4275301,-122.1838415,11.316,18.421263999999997,0.0,0.0,0.0,18.421263999999997,0.0,0.0,0.0,80.227849,2
1626822648638910294,8478,1626822648638739180,gps_base,0,1,37.4275348,-122.18383709999999,11.211,17.715680999999996,0.0,0.0,0.0,17.715680999999996,0.0,0.0,0.0,75.35976099999999,2
1626822648935490313,8479,1626822648935171472,gps_base,0,1,37.4275381,-122.1838355,10.813,17.164448999999998,0.0,0.0,0.0,17.164448999999998,0.0,0.0,0.0,72.06312100000001,2
1626822649136996551,8480,1626822649136845804,gps_base,0,1,37.427544,-122.1838315,10.684000000000001,16.5649,0.0,0.0,0.0,16.5649,0.0,0.0,0.0,69.538921,2
1626822649385281652,8481,1626822649385137684,gps_base,0,1,37.4275503,-122.1838267,10.577,15.729156000000001,0.0,0.0,0.0,15.729156000000001,0.0,0.0,0.0,67.272804,2
1626822649643930722,8482,1626822649643781954,gps_base,0,1,37.427557199999995,-122.183821,10.448,14.8996,0.0,0.0,0.0,14.8996,0.0,0.0,0.0,65.17332900000001,2
1626822649885112618,8483,1626822649884980957,gps_base,0,1,37.4275652,-122.1838143,10.377,14.085009000000001,0.0,0.0,0.0,14.085009000000001,0.0,0.0,0.0,63.107136,2
1626822650177002515,8484,1626822650176876354,gps_base,0,1,37.4275684,-122.1838121,9.994,13.417568999999999,0.0,0.0,0.0,13.417568999999999,0.0,0.0,0.0,61.183684,2
1626822650442525348,8485,1626822650442339885,gps_base,0,1,37.4275717,-122.1838104,9.466000000000001,12.759184000000001,0.0,0.0,0.0,12.759184000000001,0.0,0.0,0.0,58.967041,2
1626822650728629275,8486,1626822650728535340,gps_base,0,1,37.4275725,-122.1838082,9.143,12.285025,0.0,0.0,0.0,12.285025,0.0,0.0,0.0,57.365476,2
1626822650940502001,8487,1626822650940337101,gps_base,0,1,37.427583399999996,-122.1837996,8.938,11.553201,0.0,0.0,0.0,11.553201,0.0,0.0,0.0,54.908100000000005,2
1626822651249405280,8488,1626822651249135829,gps_base,0,1,37.427586399999996,-122.1837965,8.853,11.082241000000002,0.0,0.0,0.0,11.082241000000002,0.0,0.0,0.0,53.304601000000005,2
1626822651756289419,8489,1626822651756114498,gps_base,0,1,37.4275995,-122.1837857,8.702,10.349089000000001,0.0,0.0,0.0,10.349089000000001,0.0,0.0,0.0,51.739248999999994,2
1626822652239017834,8490,1626822652238872571,gps_base,0,1,37.427605299999996,-122.1837838,7.889,9.803161,0.0,0.0,0.0,9.803161,0.0,0.0,0.0,49.434960999999994,2
1626822652472760036,8491,1626822652472597950,gps_base,0,1,37.427618599999995,-122.18377609999999,7.542,9.320808999999999,0.0,0.0,0.0,9.320808999999999,0.0,0.0,0.0,48.066489,2
1626822652739142252,8492,1626822652738848758,gps_base,0,1,37.4276304,-122.18376769999999,7.321,10.504081000000001,0.0,0.0,0.0,10.504081000000001,0.0,0.0,0.0,55.234624000000004,2
1626822652989789538,8493,1626822652989665957,gps_base,0,1,37.4276347,-122.1837671,6.937,9.437184,0.0,0.0,0.0,9.437184,0.0,0.0,0.0,49.463089000000004,2
1626822653173248389,8494,1626822653173045314,gps_base,0,1,37.4276376,-122.1837649,6.633,8.584900000000001,0.0,0.0,0.0,8.584900000000001,0.0,0.0,0.0,44.675856,2
1626822653433327378,8495,1626822653433142089,gps_base,0,1,37.427639,-122.18376389999999,6.0680000000000005,8.208225,0.0,0.0,0.0,8.208225,0.0,0.0,0.0,42.44522499999999,2
1626822653698448652,8496,1626822653698223489,gps_base,0,1,37.4276404,-122.1837628,5.644,8.020223999999999,0.0,0.0,0.0,8.020223999999999,0.0,0.0,0.0,41.190724,2
1626822653941019454,8497,1626822653940884763,gps_base,0,1,37.4276413,-122.18376149999999,5.2860000000000005,7.845601000000001,0.0,0.0,0.0,7.845601000000001,0.0,0.0,0.0,40.030929,2
1626822654176259983,8498,1626822654175997241,gps_base,0,1,37.4276444,-122.18376099999999,4.884,7.6729,0.0,0.0,0.0,7.6729,0.0,0.0,0.0,38.962564,2
1626822654492263470,8499,1626822654492060568,gps_base,0,1,37.427647,-122.1837609,4.473,7.540516,0.0,0.0,0.0,7.540516,0.0,0.0,0.0,38.105929,2
1626822654759400363,8500,1626822654759216912,gps_base,0,1,37.427649699999996,-122.1837597,4.22,7.403841000000001,0.0,0.0,0.0,7.403841000000001,0.0,0.0,0.0,37.307663999999995,2
1626822655247583438,8501,1626822655247268957,gps_base,0,1,37.427651399999995,-122.1837578,3.7560000000000002,7.295401,0.0,0.0,0.0,7.295401,0.0,0.0,0.0,36.505764,2
1626822655744444043,8502,1626822655744321999,gps_base,0,1,37.4276531,-122.18375569999999,3.386,7.1984889999999995,0.0,0.0,0.0,7.1984889999999995,0.0,0.0,0.0,35.724529000000004,2
1626822655942786723,8503,1626822655942569991,gps_base,0,1,37.427655,-122.18375379999999,3.141,7.086244,0.0,0.0,0.0,7.086244,0.0,0.0,0.0,34.880835999999995,2
1626822656192912027,8504,1626822656192691829,gps_base,0,1,37.427656899999995,-122.18375189999999,2.8890000000000002,6.959044,0.0,0.0,0.0,6.959044,0.0,0.0,0.0,33.825855999999995,2
1626822656471786530,8505,1626822656471586094,gps_base,0,1,37.4276583,-122.18374929999999,2.694,6.859161000000001,0.0,0.0,0.0,6.859161000000001,0.0,0.0,0.0,33.131536000000004,2
1626822656692904085,8506,1626822656692733345,gps_base,0,1,37.4276597,-122.1837479,2.361,6.770403999999999,0.0,0.0,0.0,6.770403999999999,0.0,0.0,0.0,32.455809,2
1626822656938978247,8507,1626822656938872828,gps_base,0,1,37.4276623,-122.1837473,1.6520000000000001,6.661561,0.0,0.0,0.0,6.661561,0.0,0.0,0.0,31.573161,2
1626822657132830896,8508,1626822657132654124,gps_base,0,1,37.427681899999996,-122.1837353,1.6600000000000001,10.233600999999998,0.0,0.0,0.0,10.233600999999998,0.0,0.0,0.0,48.958009,2
1626822657456920101,8509,1626822657456798372,gps_base,0,1,37.427683,-122.1837343,1.2570000000000001,9.108324,0.0,0.0,0.0,9.108324,0.0,0.0,0.0,43.388569,2
1626822657691420841,8510,1626822657690974024,gps_base,0,1,37.4276845,-122.1837333,0.908,8.054244,0.0,0.0,0.0,8.054244,0.0,0.0,0.0,38.229489,2
1626822657939256053,8511,1626822657939074042,gps_base,0,1,37.4276858,-122.1837321,0.616,7.160976000000001,0.0,0.0,0.0,7.160976000000001,0.0,0.0,0.0,33.674808999999996,2
1626822658173992741,8512,1626822658173889321,gps_base,0,1,37.4276871,-122.18373079999999,0.337,6.5536,0.0,0.0,0.0,6.5536,0.0,0.0,0.0,30.580900000000003,2
1626822658383538787,8513,1626822658383195450,gps_base,0,1,37.4277065,-122.1837181,0.732,12.194064,0.0,0.0,0.0,12.194064,0.0,0.0,0.0,57.441241,2
1626822658697332651,8514,1626822658697054886,gps_base,0,1,37.4277095,-122.18371739999999,0.186,10.778089,0.0,0.0,0.0,10.778089,0.0,0.0,0.0,50.09808400000001,2
1626822658937384550,8515,1626822658937190160,gps_base,0,1,37.4277125,-122.18371649999999,-0.317,9.703225000000002,0.0,0.0,0.0,9.703225000000002,0.0,0.0,0.0,44.515584,2
1626822659190709958,8516,1626822659190275897,gps_base,0,1,37.427715899999995,-122.18371619999999,-1.046,8.803089,0.0,0.0,0.0,8.803089,0.0,0.0,0.0,39.300361,2
1626822659458837425,8517,1626822659458711323,gps_base,0,1,37.427718,-122.18371599999999,-1.694,8.020223999999999,0.0,0.0,0.0,8.020223999999999,0.0,0.0,0.0,35.295480999999995,2
1626822659698443158,8518,1626822659698280667,gps_base,0,1,37.4277204,-122.1837166,-2.567,7.300803999999999,0.0,0.0,0.0,7.300803999999999,0.0,0.0,0.0,31.292836000000005,2
1626822659918096461,8519,1626822659917964852,gps_base,0,1,37.427721999999996,-122.18371739999999,-3.37,6.744409,0.0,0.0,0.0,6.744409,0.0,0.0,0.0,28.143024999999998,2
1626822660189289759,8520,1626822660189153502,gps_base,0,1,37.4277237,-122.1837181,-4.224,6.145441000000001,0.0,0.0,0.0,6.145441000000001,0.0,0.0,0.0,24.990000999999996,2
1626822660444745248,8521,1626822660444585350,gps_base,0,1,37.4277261,-122.18371839999999,-4.931,5.688224999999999,0.0,0.0,0.0,5.688224999999999,0.0,0.0,0.0,22.543504000000002,2
1626822660693410138,8522,1626822660693296938,gps_base,0,1,37.4277285,-122.1837183,-5.546,5.368489000000001,0.0,0.0,0.0,5.368489000000001,0.0,0.0,0.0,20.738916000000003,2
1626822660936213231,8523,1626822660936044189,gps_base,0,1,37.4277306,-122.1837183,-6.19,4.999696000000001,0.0,0.0,0.0,4.999696000000001,0.0,0.0,0.0,18.852963999999997,2
1626822661190539871,8524,1626822661190342288,gps_base,0,1,37.4277327,-122.1837182,-6.8180000000000005,4.8488039999999994,0.0,0.0,0.0,4.8488039999999994,0.0,0.0,0.0,17.859075999999998,2
1626822661436949681,8525,1626822661436732552,gps_base,0,1,37.4277345,-122.1837185,-7.532,4.787344000000001,0.0,0.0,0.0,4.787344000000001,0.0,0.0,0.0,17.205903999999997,2
1626822661696959517,8526,1626822661696787040,gps_base,0,1,37.4277363,-122.1837187,-8.192,4.7349760000000005,0.0,0.0,0.0,4.7349760000000005,0.0,0.0,0.0,16.605625,2
1626822661931861662,8527,1626822661931684457,gps_base,0,1,37.4277387,-122.18371859999999,-8.813,4.682896,0.0,0.0,0.0,4.682896,0.0,0.0,0.0,16.016004,2
1626822662190980809,8528,1626822662190874216,gps_base,0,1,37.427740299999996,-122.18371839999999,-9.358,4.6311040000000006,0.0,0.0,0.0,4.6311040000000006,0.0,0.0,0.0,15.484225,2
1626822662438335246,8529,1626822662438017810,gps_base,0,1,37.4277425,-122.1837181,-9.951,4.562496,0.0,0.0,0.0,4.562496,0.0,0.0,0.0,14.799408999999999,2
1626822662691337966,8530,1626822662691125046,gps_base,0,1,37.4277449,-122.1837183,-10.755,4.473225000000001,0.0,0.0,0.0,4.473225000000001,0.0,0.0,0.0,13.853284,2
1626822662935345619,8531,1626822662935187067,gps_base,0,1,37.4277471,-122.1837187,-11.586,4.401604,0.0,0.0,0.0,4.401604,0.0,0.0,0.0,13.024881,2
1626822663185168781,8532,1626822663185012829,gps_base,0,1,37.427748099999995,-122.1837181,-11.98,4.376464,0.0,0.0,0.0,4.376464,0.0,0.0,0.0,12.766328999999999,2
1626822663439884158,8533,1626822663439714616,gps_base,0,1,37.4277491,-122.18371739999999,-12.351,4.351395999999999,0.0,0.0,0.0,4.351395999999999,0.0,0.0,0.0,12.517444,2
1626822663688191137,8534,1626822663688006481,gps_base,0,1,37.4277502,-122.1837168,-12.735,4.330560999999999,0.0,0.0,0.0,4.330560999999999,0.0,0.0,0.0,12.278016,2
1626822663938337290,8535,1626822663938183682,gps_base,0,1,37.4277514,-122.1837157,-13.048,4.301475999999999,0.0,0.0,0.0,4.301475999999999,0.0,0.0,0.0,12.096484000000002,2
1626822664191950747,8536,1626822664191763504,gps_base,0,1,37.427752399999996,-122.18371459999999,-13.289,4.2848999999999995,0.0,0.0,0.0,4.2848999999999995,0.0,0.0,0.0,11.999296,2
1626822664448133336,8537,1626822664447955951,gps_base,0,1,37.4277537,-122.18371359999999,-13.502,4.272489000000001,0.0,0.0,0.0,4.272489000000001,0.0,0.0,0.0,11.902500000000002,2
1626822664700508618,8538,1626822664700177874,gps_base,0,1,37.427754799999995,-122.18371239999999,-13.644,4.264225,0.0,0.0,0.0,4.264225,0.0,0.0,0.0,11.854249000000001,2
1626822664942855777,8539,1626822664942725234,gps_base,0,1,37.427755999999995,-122.18371119999999,-13.795,4.251843999999999,0.0,0.0,0.0,4.251843999999999,0.0,0.0,0.0,11.751184,2
1626822665178882692,8540,1626822665178722913,gps_base,0,1,37.427757,-122.1837097,-13.902000000000001,4.231249,0.0,0.0,0.0,4.231249,0.0,0.0,0.0,11.669056,2
1626822665437422397,8541,1626822665437227566,gps_base,0,1,37.427758399999995,-122.18370859999999,-14.008000000000001,4.223025000000001,0.0,0.0,0.0,4.223025000000001,0.0,0.0,0.0,11.573604000000001,2
1626822665689369151,8542,1626822665689087662,gps_base,0,1,37.4277592,-122.1837075,-14.169,4.210704,0.0,0.0,0.0,4.210704,0.0,0.0,0.0,11.478544,2
1626822665929027985,8543,1626822665928839423,gps_base,0,1,37.4277601,-122.1837065,-14.38,4.198401,0.0,0.0,0.0,4.198401,0.0,0.0,0.0,11.390625,2
1626822666180431264,8544,1626822666180301930,gps_base,0,1,37.4277611,-122.1837058,-14.627,4.194304,0.0,0.0,0.0,4.194304,0.0,0.0,0.0,11.323225,2
1626822666447842387,8545,1626822666447635274,gps_base,0,1,37.427762099999995,-122.1837051,-14.906,4.186115999999999,0.0,0.0,0.0,4.186115999999999,0.0,0.0,0.0,11.242609000000002,2
1626822666690967406,8546,1626822666690751102,gps_base,0,1,37.4277632,-122.1837037,-15.082,4.169763999999999,0.0,0.0,0.0,4.169763999999999,0.0,0.0,0.0,11.148921,2
1626822666936015627,8547,1626822666935786855,gps_base,0,1,37.4277643,-122.1837027,-15.354000000000001,4.157521000000001,0.0,0.0,0.0,4.157521000000001,0.0,0.0,0.0,11.068928999999999,2
1626822667183428685,8548,1626822667183269995,gps_base,0,1,37.4277653,-122.1837017,-15.631,4.145296,0.0,0.0,0.0,4.145296,0.0,0.0,0.0,10.995855999999998,2
1626822667439487394,8549,1626822667439315718,gps_base,0,1,37.4277666,-122.18370089999999,-15.901,4.133089,0.0,0.0,0.0,4.133089,0.0,0.0,0.0,10.923025,2
1626822667699181118,8550,1626822667699013045,gps_base,0,1,37.4277678,-122.1837001,-16.183,4.120899999999999,0.0,0.0,0.0,4.120899999999999,0.0,0.0,0.0,10.837264,2
1626822667946538722,8551,1626822667946264091,gps_base,0,1,37.427769399999995,-122.1836999,-16.808,4.100625,0.0,0.0,0.0,4.100625,0.0,0.0,0.0,10.647169,2
1626822668188659519,8552,1626822668188487749,gps_base,0,1,37.4277709,-122.1836996,-17.375,4.0804,0.0,0.0,0.0,4.0804,0.0,0.0,0.0,10.471696000000001,2
1626822668441298939,8553,1626822668441174396,gps_base,0,1,37.427771799999995,-122.18369919999999,-17.756,4.060225000000001,0.0,0.0,0.0,4.060225000000001,0.0,0.0,0.0,10.316944000000001,2
1626822668695052105,8554,1626822668694657104,gps_base,0,1,37.4277727,-122.18369849999999,-18.089,4.0441210000000005,0.0,0.0,0.0,4.0441210000000005,0.0,0.0,0.0,10.188864,2
